[{"Label":"9042 Schoolcraft Ln NE, Deer River, MN 56636, United States","Country":"USA","State":"MN","County":"Cass","City":"Deer River","Street":"Schoolcraft Ln NE","HouseNumber":"9042","PostalCode":"56636","AdditionalData":[{"value":"United States","key":"CountryName"},{"value":"Minnesota","key":"StateName"},{"value":"Cass","key":"CountyName"},{"value":"N","key":"PostalCodeType"}],"Latitude":47.22343,"Longitude":-93.80459,"Name":"Riverfront Trail Untouched Forest ","Url":"https://www.onlyinyourstate.com/minnesota/riverfront-trail-untouched-forest-mn/"},{"Label":"1615 MN-61, Grand Marais, MN 55604, United States","Country":"USA","State":"MN","County":"Cook","City":"Grand Marais","Street":"MN-61","HouseNumber":"1615","PostalCode":"55604","AdditionalData":[{"value":"United States","key":"CountryName"},{"value":"Minnesota","key":"StateName"},{"value":"Cook","key":"CountyName"},{"value":"N","key":"PostalCodeType"}],"Latitude":47.74986,"Longitude":-90.35488,"Name":"Glampground Restaurant ","Url":"https://www.onlyinyourstate.com/minnesota/glampground-restaurant-mn/"},{"Label":"25022 County Road 41, Starbuck, MN 56381, United States","Country":"USA","State":"MN","County":"Pope","City":"Starbuck","Street":"County Road 41","HouseNumber":"25022","PostalCode":"56381","AdditionalData":[{"value":"United States","key":"CountryName"},{"value":"Minnesota","key":"StateName"},{"value":"Pope","key":"CountyName"},{"value":"N","key":"PostalCodeType"}],"Latitude":45.54164,"Longitude":-95.53258,"Name":"Glacial Lakes State Park ","Url":"https://www.onlyinyourstate.com/minnesota/glacial-lakes-state-park-mn/"},{"Label":"1802 County Road 137, Waite Park, MN 56387, United States","Country":"USA","State":"MN","County":"Stearns","City":"Waite Park","Street":"County Road 137","HouseNumber":"1802","PostalCode":"56387","AdditionalData":[{"value":"United States","key":"CountryName"},{"value":"Minnesota","key":"StateName"},{"value":"Stearns","key":"CountyName"},{"value":"N","key":"PostalCodeType"}],"Latitude":45.53792,"Longitude":-94.24106,"Name":"Refreshing Hike Swimming Hole ","Url":"https://www.onlyinyourstate.com/minnesota/refreshing-hike-swimming-hole-mn/"},{"Label":"1900 Marshall St NE, Minneapolis, MN 55418, United States","Country":"USA","State":"MN","County":"Hennepin","City":"Minneapolis","District":"Bottineau","Street":"Marshall St NE","HouseNumber":"1900","PostalCode":"55418","AdditionalData":[{"value":"United States","key":"CountryName"},{"value":"Minnesota","key":"StateName"},{"value":"Hennepin","key":"CountyName"},{"value":"N","key":"PostalCodeType"}],"Latitude":45.00752,"Longitude":-93.27233,"Name":"Tiki Restaurant Best Patio ","Url":"https://www.onlyinyourstate.com/minnesota/tiki-restaurant-best-patio-mn/"},{"Label":"561 Snelling Ave S, St Paul, MN 55116, United States","Country":"USA","State":"MN","County":"Ramsey","City":"St Paul","Street":"Snelling Ave S","HouseNumber":"561","PostalCode":"55116","AdditionalData":[{"value":"United States","key":"CountryName"},{"value":"Minnesota","key":"StateName"},{"value":"Ramsey","key":"CountyName"},{"value":"N","key":"PostalCodeType"}],"Latitude":44.92449,"Longitude":-93.16735,"Name":"Magical Escape Room ","Url":"https://www.onlyinyourstate.com/minnesota/magical-escape-room-mn/"},{"Label":"323 Harbor Dr, Duluth, MN 55802, United States","Country":"USA","State":"MN","County":"St Louis","City":"Duluth","District":"Downtown Duluth","Street":"Harbor Dr","HouseNumber":"323","PostalCode":"55802","AdditionalData":[{"value":"United States","key":"CountryName"},{"value":"Minnesota","key":"StateName"},{"value":"St Louis","key":"CountyName"},{"value":"N","key":"PostalCodeType"}],"Latitude":46.78107,"Longitude":-92.09655,"Name":"Dinner Boat ","Url":"https://www.onlyinyourstate.com/minnesota/dinner-boat-mn/"},{"Label":"21071 County 118, Preston, MN 55965, United States","Country":"USA","State":"MN","County":"Fillmore","City":"Preston","Street":"County 118","HouseNumber":"21071","PostalCode":"55965","AdditionalData":[{"value":"United States","key":"CountryName"},{"value":"Minnesota","key":"StateName"},{"value":"Fillmore","key":"CountyName"},{"value":"N","key":"PostalCodeType"}],"Latitude":43.63773,"Longitude":-92.21928,"Name":"Forestville Mystery Cave State Park ","Url":"https://www.onlyinyourstate.com/minnesota/forestville-mystery-cave-state-park-mn/"},{"Label":"17992 MN-371, Brainerd, MN 56401, United States","Country":"USA","State":"MN","County":"Crow Wing","City":"Brainerd","Street":"MN-371","HouseNumber":"17992","PostalCode":"56401","AdditionalData":[{"value":"United States","key":"CountryName"},{"value":"Minnesota","key":"StateName"},{"value":"Crow Wing","key":"CountyName"},{"value":"N","key":"PostalCodeType"}],"Latitude":46.41269,"Longitude":-94.28549,"Name":"Pirate Themed Mini Golf ","Url":"https://www.onlyinyourstate.com/minnesota/pirate-themed-mini-golf-mn/"},{"Label":"7600 42nd Ave N, New Hope, MN 55427, United States","Country":"USA","State":"MN","County":"Hennepin","City":"New Hope","Street":"42nd Ave N","HouseNumber":"7600","PostalCode":"55427","AdditionalData":[{"value":"United States","key":"CountryName"},{"value":"Minnesota","key":"StateName"},{"value":"Hennepin","key":"CountyName"},{"value":"N","key":"PostalCodeType"}],"Latitude":45.03342,"Longitude":-93.37726,"Name":"Country Style Restaurant ","Url":"https://www.onlyinyourstate.com/minnesota/country-style-restaurant-mn/"},{"Label":"3749 Highway 33 N, Cloquet, MN 55720, United States","Country":"USA","State":"MN","County":"St Louis","City":"Cloquet","Street":"Highway 33 N","HouseNumber":"3749","PostalCode":"55720","AdditionalData":[{"value":"United States","key":"CountryName"},{"value":"Minnesota","key":"StateName"},{"value":"St Louis","key":"CountyName"},{"value":"N","key":"PostalCodeType"}],"Latitude":46.78333,"Longitude":-92.45029,"Name":"Find Your Own Gemstones ","Url":"https://www.onlyinyourstate.com/minnesota/find-your-own-gemstones-mn/"},{"Label":"1 Theodore Wirth Pkwy, Minneapolis, MN 55422, United States","Country":"USA","State":"MN","County":"Hennepin","City":"Minneapolis","Street":"Theodore Wirth Pkwy","HouseNumber":"1","PostalCode":"55422","AdditionalData":[{"value":"United States","key":"CountryName"},{"value":"Minnesota","key":"StateName"},{"value":"Hennepin","key":"CountyName"},{"value":"N","key":"PostalCodeType"}],"Latitude":44.9773681,"Longitude":-93.3263004,"Name":"Eloise Butler Wildflower Trail ","Url":"https://www.onlyinyourstate.com/minnesota/eloise-butler-wildflower-trail-mn/"},{"Label":"2025 W River Rd, Minneapolis, MN 55411, United States","Country":"USA","State":"MN","County":"Hennepin","City":"Minneapolis","District":"Hawthorne","Street":"W River Rd","HouseNumber":"2025","PostalCode":"55411","AdditionalData":[{"value":"United States","key":"CountryName"},{"value":"Minnesota","key":"StateName"},{"value":"Hennepin","key":"CountyName"},{"value":"N","key":"PostalCodeType"}],"Latitude":44.99979,"Longitude":-93.27788,"Name":"Pizza Buffet ","Url":"https://www.onlyinyourstate.com/minnesota/pizza-buffet-mn/"},{"Label":"26389 County 7 Blvd, Welch, MN 55089, United States","Country":"USA","State":"MN","County":"Goodhue","City":"Welch","Street":"County 7 Blvd","HouseNumber":"26389","PostalCode":"55089","AdditionalData":[{"value":"United States","key":"CountryName"},{"value":"Minnesota","key":"StateName"},{"value":"Goodhue","key":"CountyName"},{"value":"N","key":"PostalCodeType"}],"Latitude":44.5663267,"Longitude":-92.7375665,"Name":"All Day Float Trip ","Url":"https://www.onlyinyourstate.com/minnesota/all-day-float-trip-mn/"},{"Label":"Coon Rapids, MN, United States","Country":"USA","State":"MN","County":"Anoka","City":"Coon Rapids","PostalCode":"55433","AdditionalData":[{"value":"United States","key":"CountryName"},{"value":"Minnesota","key":"StateName"},{"value":"Anoka","key":"CountyName"},{"value":"N","key":"PostalCodeType"}],"Latitude":45.17309,"Longitude":-93.3044,"Name":"Epic Lazy River ","Url":"https://www.onlyinyourstate.com/minnesota/epic-lazy-river-mn/"},{"Label":"104 Main St W, Isanti, MN 55040, United States","Country":"USA","State":"MN","County":"Isanti","City":"Isanti","Street":"Main St W","HouseNumber":"104","PostalCode":"55040","AdditionalData":[{"value":"United States","key":"CountryName"},{"value":"Minnesota","key":"StateName"},{"value":"Isanti","key":"CountyName"},{"value":"N","key":"PostalCodeType"}],"Latitude":45.49078,"Longitude":-93.24832,"Name":"Best Breakfast Restaurant ","Url":"https://www.onlyinyourstate.com/minnesota/best-breakfast-restaurant-mn/"},{"Label":"115 Babcock Blvd W, Delano, MN 55328, United States","Country":"USA","State":"MN","County":"Wright","City":"Delano","Street":"Babcock Blvd W","HouseNumber":"115","PostalCode":"55328","AdditionalData":[{"value":"United States","key":"CountryName"},{"value":"Minnesota","key":"StateName"},{"value":"Wright","key":"CountyName"},{"value":"N","key":"PostalCodeType"}],"Latitude":45.03678,"Longitude":-93.79283,"Name":"Burgers And Shakes Drive In ","Url":"https://www.onlyinyourstate.com/minnesota/burgers-and-shakes-drive-in-mn/"},{"Label":"Brighton Beach Rd, Duluth, MN 55804, United States","Country":"USA","State":"MN","County":"St Louis","City":"Duluth","District":"North Shore","Street":"Brighton Beach Rd","PostalCode":"55804","AdditionalData":[{"value":"United States","key":"CountryName"},{"value":"Minnesota","key":"StateName"},{"value":"St Louis","key":"CountyName"},{"value":"N","key":"PostalCodeType"}],"Latitude":46.85944,"Longitude":-91.96441,"Name":"Rocky Brighton Beach ","Url":"https://www.onlyinyourstate.com/minnesota/rocky-brighton-beach-mn/"},{"Label":"10830 French Lake Rd, Champlin, MN 55316, United States","Country":"USA","State":"MN","County":"Hennepin","City":"Champlin","Street":"French Lake Rd","HouseNumber":"10830","PostalCode":"55316","AdditionalData":[{"value":"United States","key":"CountryName"},{"value":"Minnesota","key":"StateName"},{"value":"Hennepin","key":"CountyName"},{"value":"N","key":"PostalCodeType"}],"Latitude":45.18848,"Longitude":-93.42004,"Name":"Pick Your Own Strawberry Farm ","Url":"https://www.onlyinyourstate.com/minnesota/pick-your-own-strawberry-farm-mn/"},{"Label":"21378 1st St, New Ulm, MN 56073, United States","Country":"USA","State":"MN","County":"Brown","City":"New Ulm","Street":"1st St","HouseNumber":"21378","PostalCode":"56073","AdditionalData":[{"value":"United States","key":"CountryName"},{"value":"Minnesota","key":"StateName"},{"value":"Brown","key":"CountyName"},{"value":"N","key":"PostalCodeType"}],"Latitude":44.23045,"Longitude":-94.43437,"Name":"Chicken Dinner Restaurant ","Url":"https://www.onlyinyourstate.com/minnesota/chicken-dinner-restaurant-mn/"},{"Label":"20 Cedar St E, Annandale, MN 55302, United States","Country":"USA","State":"MN","County":"Wright","City":"Annandale","Street":"Cedar St E","HouseNumber":"20","PostalCode":"55302","AdditionalData":[{"value":"United States","key":"CountryName"},{"value":"Minnesota","key":"StateName"},{"value":"Wright","key":"CountyName"},{"value":"N","key":"PostalCodeType"}],"Latitude":45.264,"Longitude":-94.12383,"Name":"Garden Restaurant ","Url":"https://www.onlyinyourstate.com/minnesota/garden-restaurant-mn/"},{"Label":"3297 N County Road 45, Owatonna, MN 55060, United States","Country":"USA","State":"MN","County":"Steele","City":"Owatonna","Street":"N County Road 45","HouseNumber":"3297","PostalCode":"55060","AdditionalData":[{"value":"United States","key":"CountryName"},{"value":"Minnesota","key":"StateName"},{"value":"Steele","key":"CountyName"},{"value":"N","key":"PostalCodeType"}],"Latitude":44.12004,"Longitude":-93.24532,"Name":"Reptile Park ","Url":"https://www.onlyinyourstate.com/minnesota/reptile-park-mn/"},{"Label":"30200 Scenic Byway Rd, Henderson, MN 56044, United States","Country":"USA","State":"MN","County":"Sibley","City":"Henderson","Street":"Scenic Byway Rd","HouseNumber":"30200","PostalCode":"56044","AdditionalData":[{"value":"United States","key":"CountryName"},{"value":"Minnesota","key":"StateName"},{"value":"Sibley","key":"CountyName"},{"value":"N","key":"PostalCodeType"}],"Latitude":44.61461,"Longitude":-93.87042,"Name":"Kerfoot Adventure Park ","Url":"https://www.onlyinyourstate.com/minnesota/kerfoot-adventure-park-mn/"},{"Label":"99 E Oak St, Redwood Falls, MN 56283, United States","Country":"USA","State":"MN","County":"Redwood","City":"Redwood Falls","Street":"E Oak St","HouseNumber":"99","PostalCode":"56283","AdditionalData":[{"value":"United States","key":"CountryName"},{"value":"Minnesota","key":"StateName"},{"value":"Redwood","key":"CountyName"},{"value":"N","key":"PostalCodeType"}],"Latitude":44.55168,"Longitude":-95.12422,"Name":"Secret Waterfall ","Url":"https://www.onlyinyourstate.com/minnesota/secret-waterfall-mn/"},{"Label":"3815 American Blvd E, Bloomington, MN 55425, United States","Country":"USA","State":"MN","County":"Hennepin","City":"Bloomington","District":"East Bloomington","Street":"American Blvd E","HouseNumber":"3815","PostalCode":"55425","AdditionalData":[{"value":"United States","key":"CountryName"},{"value":"Minnesota","key":"StateName"},{"value":"Hennepin","key":"CountyName"},{"value":"N","key":"PostalCodeType"}],"Latitude":44.8594,"Longitude":-93.21752,"Name":"Vast Swamp ","Url":"https://www.onlyinyourstate.com/minnesota/vast-swamp-mn/"},{"Label":"22 W Nokomis St, Osakis, MN 56360, United States","Country":"USA","State":"MN","County":"Douglas","City":"Osakis","Street":"W Nokomis St","HouseNumber":"22","PostalCode":"56360","AdditionalData":[{"value":"United States","key":"CountryName"},{"value":"Minnesota","key":"StateName"},{"value":"Douglas","key":"CountyName"},{"value":"N","key":"PostalCodeType"}],"Latitude":45.86732,"Longitude":-95.15347,"Name":"Old Fashioned Ice Cream Shop ","Url":"https://www.onlyinyourstate.com/minnesota/old-fashioned-ice-cream-shop-mn/"},{"Label":"4580 Victoria St N, Shoreview, MN 55126, United States","Country":"USA","State":"MN","County":"Ramsey","City":"Shoreview","Street":"Victoria St N","HouseNumber":"4580","PostalCode":"55126","AdditionalData":[{"value":"United States","key":"CountryName"},{"value":"Minnesota","key":"StateName"},{"value":"Ramsey","key":"CountyName"},{"value":"N","key":"PostalCodeType"}],"Latitude":45.08073,"Longitude":-93.135,"Name":"Jungle Themed Indoor Playground ","Url":"https://www.onlyinyourstate.com/minnesota/jungle-themed-indoor-playground-mn/"},{"Label":"402 Fire Monument Rd, Hinckley, MN 55037, United States","Country":"USA","State":"MN","County":"Pine","City":"Hinckley","Street":"Fire Monument Rd","HouseNumber":"402","PostalCode":"55037","AdditionalData":[{"value":"United States","key":"CountryName"},{"value":"Minnesota","key":"StateName"},{"value":"Pine","key":"CountyName"},{"value":"N","key":"PostalCodeType"}],"Latitude":46.01076,"Longitude":-92.93029,"Name":"Gas Station Cinnamon Rolls ","Url":"https://www.onlyinyourstate.com/minnesota/gas-station-cinnamon-rolls-mn/"},{"Label":"221 Bush St, Red Wing, MN 55066, United States","Country":"USA","State":"MN","County":"Goodhue","City":"Red Wing","Street":"Bush St","HouseNumber":"221","PostalCode":"55066","AdditionalData":[{"value":"United States","key":"CountryName"},{"value":"Minnesota","key":"StateName"},{"value":"Goodhue","key":"CountyName"},{"value":"N","key":"PostalCodeType"}],"Latitude":44.56557,"Longitude":-92.53417,"Name":"Milkshakes Restaurant ","Url":"https://www.onlyinyourstate.com/minnesota/milkshakes-restaurant-mn/"},{"Label":"3950 Green Heights Trl SW, Prior Lake, MN 55372, United States","Country":"USA","State":"MN","County":"Scott","City":"Prior Lake","Street":"Green Heights Trl SW","HouseNumber":"3950","PostalCode":"55372","AdditionalData":[{"value":"United States","key":"CountryName"},{"value":"Minnesota","key":"StateName"},{"value":"Scott","key":"CountyName"},{"value":"N","key":"PostalCodeType"}],"Latitude":44.71087,"Longitude":-93.44106,"Name":"Lakeside Restaurant Sunny Days ","Url":"https://www.onlyinyourstate.com/minnesota/lakeside-restaurant-sunny-days-mn/"},{"Label":"508 E Superior St, Duluth, MN 55802, United States","Country":"USA","State":"MN","County":"St Louis","City":"Duluth","District":"East Hillside","Street":"E Superior St","HouseNumber":"508","PostalCode":"55802","AdditionalData":[{"value":"United States","key":"CountryName"},{"value":"Minnesota","key":"StateName"},{"value":"St Louis","key":"CountyName"},{"value":"N","key":"PostalCodeType"}],"Latitude":46.79195,"Longitude":-92.09117,"Name":"100 Year Old Restaurant ","Url":"https://www.onlyinyourstate.com/minnesota/100-year-old-restaurant-mn/"},{"Label":"298 University Ave W, St Paul, MN 55103, United States","Country":"USA","State":"MN","County":"Ramsey","City":"St Paul","District":"Summit-University","Street":"University Ave W","HouseNumber":"298","PostalCode":"55103","AdditionalData":[{"value":"United States","key":"CountryName"},{"value":"Minnesota","key":"StateName"},{"value":"Ramsey","key":"CountyName"},{"value":"N","key":"PostalCodeType"}],"Latitude":44.95547,"Longitude":-93.11248,"Name":"Whimsical Ice Cream Shop ","Url":"https://www.onlyinyourstate.com/minnesota/whimsical-ice-cream-shop-mn/"},{"Label":"170 Mile Creek Rd, Grand Portage, MN 55605, United States","Country":"USA","State":"MN","County":"Cook","City":"Grand Portage","Street":"Mile Creek Rd","HouseNumber":"170","PostalCode":"55605","AdditionalData":[{"value":"United States","key":"CountryName"},{"value":"Minnesota","key":"StateName"},{"value":"Cook","key":"CountyName"},{"value":"N","key":"PostalCodeType"}],"Latitude":47.9609093,"Longitude":-89.6857553,"Name":"Historical Landmark Tree ","Url":"https://www.onlyinyourstate.com/minnesota/historical-landmark-tree-mn/"},{"Label":"55716 Highway 72 NE, Waskish, MN 56685, United States","Country":"USA","State":"MN","County":"Beltrami","City":"Waskish","Street":"Highway 72 NE","HouseNumber":"55716","PostalCode":"56685","AdditionalData":[{"value":"United States","key":"CountryName"},{"value":"Minnesota","key":"StateName"},{"value":"Beltrami","key":"CountyName"},{"value":"N","key":"PostalCodeType"}],"Latitude":48.17379,"Longitude":-94.5126,"Name":"Tower Climb Wilderness ","Url":"https://www.onlyinyourstate.com/minnesota/tower-climb-wilderness-mn/"},{"Label":"800 Sibley Park Rd NE, New London, MN 56273, United States","Country":"USA","State":"MN","County":"Kandiyohi","City":"New London","Street":"Sibley Park Rd NE","HouseNumber":"800","PostalCode":"56273","AdditionalData":[{"value":"United States","key":"CountryName"},{"value":"Minnesota","key":"StateName"},{"value":"Kandiyohi","key":"CountyName"},{"value":"N","key":"PostalCodeType"}],"Latitude":45.31742,"Longitude":-95.03971,"Name":"Little Known Scenic Overlook ","Url":"https://www.onlyinyourstate.com/minnesota/little-known-scenic-overlook-mn/"},{"Label":"651 Cleveland Ave S, St Paul, MN 55116, United States","Country":"USA","State":"MN","County":"Ramsey","City":"St Paul","Street":"Cleveland Ave S","HouseNumber":"651","PostalCode":"55116","AdditionalData":[{"value":"United States","key":"CountryName"},{"value":"Minnesota","key":"StateName"},{"value":"Ramsey","key":"CountyName"},{"value":"N","key":"PostalCodeType"}],"Latitude":44.92191,"Longitude":-93.18779,"Name":"Oldest Deli ","Url":"https://www.onlyinyourstate.com/minnesota/oldest-deli-mn/"},{"Label":"3481 MN-61, Lutsen, MN 55612, United States","Country":"USA","State":"MN","County":"Cook","City":"Lutsen","Street":"MN-61","HouseNumber":"3481","PostalCode":"55612","AdditionalData":[{"value":"United States","key":"CountryName"},{"value":"Minnesota","key":"StateName"},{"value":"Cook","key":"CountyName"},{"value":"N","key":"PostalCodeType"}],"Latitude":47.7116963,"Longitude":-90.5034395,"Name":"Short Sweet Waterfall Hike ","Url":"https://www.onlyinyourstate.com/minnesota/short-sweet-waterfall-hike-mn/"},{"Label":"9S River St, Mackay QLD 4740, Australia","Country":"AUS","State":"QLD","City":"Mackay","District":"Mackay","Street":"River St","HouseNumber":"9S","PostalCode":"4740","AdditionalData":[{"value":"Australia","key":"CountryName"},{"value":"Queensland","key":"StateName"}],"Latitude":-21.14116,"Longitude":149.19136,"Name":"Western Themed Restaurant ","Url":"https://www.onlyinyourstate.com/minnesota/western-themed-restaurant-mn/"},{"Label":"3481 MN-61, Lutsen, MN 55612, United States","Country":"USA","State":"MN","County":"Cook","City":"Lutsen","Street":"MN-61","HouseNumber":"3481","PostalCode":"55612","AdditionalData":[{"value":"United States","key":"CountryName"},{"value":"Minnesota","key":"StateName"},{"value":"Cook","key":"CountyName"},{"value":"N","key":"PostalCodeType"}],"Latitude":47.7116963,"Longitude":-90.5034395,"Name":"Short Sweet Waterfall Hike ","Url":"https://www.onlyinyourstate.com/minnesota/short-sweet-waterfall-hike-mn/"},{"Label":"9S River St, Mackay QLD 4740, Australia","Country":"AUS","State":"QLD","City":"Mackay","District":"Mackay","Street":"River St","HouseNumber":"9S","PostalCode":"4740","AdditionalData":[{"value":"Australia","key":"CountryName"},{"value":"Queensland","key":"StateName"}],"Latitude":-21.14116,"Longitude":149.19136,"Name":"Western Themed Restaurant ","Url":"https://www.onlyinyourstate.com/minnesota/western-themed-restaurant-mn/"},{"Label":"3746 Sunset Dr, Cariboo, BC V0K, Canada","Country":"CAN","State":"BC","County":"Cariboo","City":"Cariboo","District":"100 Mile House","Street":"Sunset Dr","HouseNumber":"3746","PostalCode":"V0K","AdditionalData":[{"value":"Canada","key":"CountryName"},{"value":"British Columbia","key":"StateName"},{"value":"Cariboo","key":"CountyName"}],"Latitude":51.6218967,"Longitude":-121.2586168,"Name":"Small Town Restaurant Walleye ","Url":"https://www.onlyinyourstate.com/minnesota/small-town-restaurant-walleye-mn/"},{"Label":"3675 Arboretum Dr, Chaska, MN 55318, United States","Country":"USA","State":"MN","County":"Carver","City":"Chaska","Street":"Arboretum Dr","HouseNumber":"3675","PostalCode":"55318","AdditionalData":[{"value":"United States","key":"CountryName"},{"value":"Minnesota","key":"StateName"},{"value":"Carver","key":"CountyName"},{"value":"N","key":"PostalCodeType"}],"Latitude":44.85985,"Longitude":-93.61251,"Name":"1200 Acre Botanical Garden ","Url":"https://www.onlyinyourstate.com/minnesota/1200-acre-botanical-garden-mn/"},{"Label":"550 US-14, Walnut Grove, MN 56180, United States","Country":"USA","State":"MN","County":"Redwood","City":"Walnut Grove","Street":"US-14","HouseNumber":"550","PostalCode":"56180","AdditionalData":[{"value":"United States","key":"CountryName"},{"value":"Minnesota","key":"StateName"},{"value":"Redwood","key":"CountyName"},{"value":"N","key":"PostalCodeType"}],"Latitude":44.22521,"Longitude":-95.46889,"Name":"Little House On The Prairie Cafe ","Url":"https://www.onlyinyourstate.com/minnesota/little-house-on-the-prairie-cafe-mn/"},{"Label":"12672 County Highway 17, Detroit Lakes, MN 56501, United States","Country":"USA","State":"MN","County":"Becker","City":"Detroit Lakes","Street":"County Highway 17","HouseNumber":"12672","PostalCode":"56501","AdditionalData":[{"value":"United States","key":"CountryName"},{"value":"Minnesota","key":"StateName"},{"value":"Becker","key":"CountyName"},{"value":"N","key":"PostalCodeType"}],"Latitude":46.75472,"Longitude":-95.8806,"Name":"Out Of The Way Flea Market ","Url":"https://www.onlyinyourstate.com/minnesota/out-of-the-way-flea-market-mn/"},{"Label":"Lake Rd, De Soto, IL 62924, United States","Country":"USA","State":"IL","County":"Jackson","City":"De Soto","Street":"Lake Rd","PostalCode":"62924","AdditionalData":[{"value":"United States","key":"CountryName"},{"value":"Illinois","key":"StateName"},{"value":"Jackson","key":"CountyName"},{"value":"N","key":"PostalCodeType"}],"Latitude":37.81263,"Longitude":-89.22045,"Name":"Chutes And Ladders Playground ","Url":"https://www.onlyinyourstate.com/minnesota/chutes-and-ladders-playground-mn/"},{"Label":"603 US-10, Detroit Lakes, MN 56501, United States","Country":"USA","State":"MN","County":"Becker","City":"Detroit Lakes","Street":"US-10","HouseNumber":"603","PostalCode":"56501","AdditionalData":[{"value":"United States","key":"CountryName"},{"value":"Minnesota","key":"StateName"},{"value":"Becker","key":"CountyName"},{"value":"N","key":"PostalCodeType"}],"Latitude":46.8213328,"Longitude":-95.8531643,"Name":"14000 Square Foot Antique Mall ","Url":"https://www.onlyinyourstate.com/minnesota/14000-square-foot-antique-mall-mn/"},{"Label":"Glendale Rd, Agawam, MA 01001, United States","Country":"USA","State":"MA","County":"Hampden","City":"Agawam","Street":"Glendale Rd","PostalCode":"01001","AdditionalData":[{"value":"United States","key":"CountryName"},{"value":"Massachusetts","key":"StateName"},{"value":"Hampden","key":"CountyName"},{"value":"N","key":"PostalCodeType"}],"Latitude":42.06507,"Longitude":-72.60286,"Name":"Adult Playground ","Url":"https://www.onlyinyourstate.com/minnesota/adult-playground-mn/"},{"Label":"500 3rd Ave, Prince George, BC V2L, Canada","Country":"CAN","State":"BC","County":"Fraser-Fort George","City":"Prince George","Street":"3rd Ave","HouseNumber":"500","PostalCode":"V2L","AdditionalData":[{"value":"Canada","key":"CountryName"},{"value":"British Columbia","key":"StateName"},{"value":"Fraser-Fort George","key":"CountyName"}],"Latitude":53.9135932,"Longitude":-122.7335123,"Name":"Castle Pizza Place ","Url":"https://www.onlyinyourstate.com/minnesota/castle-pizza-place-mn/"},{"Label":"21378 1st St, Edmonton, AB T5Y, Canada","Country":"CAN","State":"AB","County":"Alberta","City":"Edmonton","District":"Rural North East North Sturgeon","Street":"1st St","HouseNumber":"21378","PostalCode":"T5Y","AdditionalData":[{"value":"Canada","key":"CountryName"},{"value":"Alberta","key":"StateName"},{"value":"Alberta","key":"CountyName"}],"Latitude":53.6752322,"Longitude":-113.3444249,"Name":"Boonies Restaurant ","Url":"https://www.onlyinyourstate.com/minnesota/boonies-restaurant-mn/"},{"Label":"415 Sunnyside Dr, Durham, NB E8G, Canada","Country":"CAN","State":"NB","County":"Restigouche","City":"Durham","District":"Lorne","Street":"Sunnyside Dr","HouseNumber":"415","PostalCode":"E8G","AdditionalData":[{"value":"Canada","key":"CountryName"},{"value":"New Brunswick","key":"StateName"},{"value":"Restigouche","key":"CountyName"}],"Latitude":47.8633062,"Longitude":-66.0892309,"Name":"Old Fashioned Drive In ","Url":"https://www.onlyinyourstate.com/minnesota/old-fashioned-drive-in-mn/"},{"Label":"7940 MN-61, Schroeder, MN 55613, United States","Country":"USA","State":"MN","County":"Cook","City":"Schroeder","Street":"MN-61","HouseNumber":"7940","PostalCode":"55613","AdditionalData":[{"value":"United States","key":"CountryName"},{"value":"Minnesota","key":"StateName"},{"value":"Cook","key":"CountyName"},{"value":"N","key":"PostalCodeType"}],"Latitude":47.5429,"Longitude":-90.89773,"Name":"Charming Bakery Waterfall ","Url":"https://www.onlyinyourstate.com/minnesota/charming-bakery-waterfall-mn/"},{"Label":"2600 Park Ave, Brandon, MB R7B, Canada","Country":"CAN","State":"MB","County":"Manitoba","City":"Brandon","Street":"Park Ave","HouseNumber":"2600","PostalCode":"R7B","AdditionalData":[{"value":"Canada","key":"CountryName"},{"value":"Manitoba","key":"StateName"},{"value":"Manitoba","key":"CountyName"}],"Latitude":49.8367825,"Longitude":-99.9935227,"Name":"Authentic Swedish Cafe ","Url":"https://www.onlyinyourstate.com/minnesota/authentic-swedish-cafe-mn/"},{"Label":"W Lexington Ave, El Cajon, CA 92020, United States","Country":"USA","State":"CA","County":"San Diego","City":"El Cajon","Street":"W Lexington Ave","PostalCode":"92020","AdditionalData":[{"value":"United States","key":"CountryName"},{"value":"California","key":"StateName"},{"value":"San Diego","key":"CountyName"},{"value":"N","key":"PostalCodeType"}],"Latitude":32.79271,"Longitude":-116.96618,"Name":"Log Cabin Pizza Place ","Url":"https://www.onlyinyourstate.com/minnesota/log-cabin-pizza-place-mn/"},{"Label":"101 4th St E, St Walburg, SK S0M, Canada","Country":"CAN","State":"SK","County":"Saskatchewan","City":"St Walburg","Street":"4th St E","HouseNumber":"101","PostalCode":"S0M","AdditionalData":[{"value":"Canada","key":"CountryName"},{"value":"Saskatchewan","key":"StateName"},{"value":"Saskatchewan","key":"CountyName"}],"Latitude":53.6350055,"Longitude":-109.195078,"Name":"Bbq Shack ","Url":"https://www.onlyinyourstate.com/minnesota/bbq-shack-mn/"},{"Label":"99 Avenue Demers O, La Sarre, QC J9Z, Canada","Country":"CAN","State":"QC","County":"Abitibi-Ouest","City":"La Sarre","Street":"Avenue Demers O","HouseNumber":"99","PostalCode":"J9Z","AdditionalData":[{"value":"Canada","key":"CountryName"},{"value":"Québec","key":"StateName"},{"value":"Abitibi-Ouest","key":"CountyName"}],"Latitude":48.7909051,"Longitude":-79.2102597,"Name":"Road Trip Themed Restaurant ","Url":"https://www.onlyinyourstate.com/minnesota/road-trip-themed-restaurant-mn/"},{"Label":"105 E Main St, Welland, ON L3B 3W5, Canada","Country":"CAN","State":"ON","County":"Niagara","City":"Welland","Street":"E Main St","HouseNumber":"105","PostalCode":"L3B 3W5","AdditionalData":[{"value":"Canada","key":"CountryName"},{"value":"Ontario","key":"StateName"},{"value":"Niagara","key":"CountyName"}],"Latitude":42.9921429,"Longitude":-79.2476559,"Name":"Main Street Restaurant ","Url":"https://www.onlyinyourstate.com/minnesota/main-street-restaurant-mn/"},{"Label":"404 Lake St W, Minneapolis, MN 55408, United States","Country":"USA","State":"MN","County":"Hennepin","City":"Minneapolis","District":"Whittier","Street":"Lake St W","HouseNumber":"404","PostalCode":"55408","AdditionalData":[{"value":"United States","key":"CountryName"},{"value":"Minnesota","key":"StateName"},{"value":"Hennepin","key":"CountyName"},{"value":"N","key":"PostalCodeType"}],"Latitude":44.94862,"Longitude":-93.28465,"Name":"Cheese Wonderlands ","Url":"https://www.onlyinyourstate.com/minnesota/cheese-wonderlands-mn/"},{"Label":"31898 125th St, Okanagan-Similkameen, BC V0H, Canada","Country":"CAN","State":"BC","County":"Okanagan-Similkameen","City":"Okanagan-Similkameen","District":"Oliver","Street":"125th St","HouseNumber":"31898","PostalCode":"V0H","AdditionalData":[{"value":"Canada","key":"CountryName"},{"value":"British Columbia","key":"StateName"},{"value":"Okanagan-Similkameen","key":"CountyName"}],"Latitude":49.1348517,"Longitude":-119.5926649,"Name":"Racing Themed Restaurant ","Url":"https://www.onlyinyourstate.com/minnesota/racing-themed-restaurant-mn/"},{"Label":"CR-7, Finland, MN 55603, United States","Country":"USA","State":"MN","County":"Lake","City":"Finland","Street":"CR-7","PostalCode":"55603","AdditionalData":[{"value":"United States","key":"CountryName"},{"value":"Minnesota","key":"StateName"},{"value":"Lake","key":"CountyName"},{"value":"N","key":"PostalCodeType"}],"Latitude":47.60884,"Longitude":-91.04784,"Name":"Trees Older Than State ","Url":"https://www.onlyinyourstate.com/minnesota/trees-older-than-state-mn/"},{"Label":"19041 Highway 74, Altura, MN 55910, United States","Country":"USA","State":"MN","County":"Winona","City":"Altura","Street":"Highway 74","HouseNumber":"19041","PostalCode":"55910","AdditionalData":[{"value":"United States","key":"CountryName"},{"value":"Minnesota","key":"StateName"},{"value":"Winona","key":"CountyName"},{"value":"N","key":"PostalCodeType"}],"Latitude":44.06302,"Longitude":-92.0433,"Name":"Year Round Camping State Parks ","Url":"https://www.onlyinyourstate.com/minnesota/year-round-camping-state-parks-mn/"},{"Label":"3744 Bloomington Ave S, Minneapolis, MN 55407, United States","Country":"USA","State":"MN","County":"Hennepin","City":"Minneapolis","District":"Powderhorn Park","Street":"Bloomington Ave S","HouseNumber":"3744","PostalCode":"55407","AdditionalData":[{"value":"United States","key":"CountryName"},{"value":"Minnesota","key":"StateName"},{"value":"Hennepin","key":"CountyName"},{"value":"N","key":"PostalCodeType"}],"Latitude":44.93428,"Longitude":-93.25278,"Name":"Epic Buffets ","Url":"https://www.onlyinyourstate.com/minnesota/epic-buffets-mn/"},{"Label":"100 W College Dr, Marshall, MN 56258, United States","Country":"USA","State":"MN","County":"Lyon","City":"Marshall","Street":"W College Dr","HouseNumber":"100","PostalCode":"56258","AdditionalData":[{"value":"United States","key":"CountryName"},{"value":"Minnesota","key":"StateName"},{"value":"Lyon","key":"CountyName"},{"value":"N","key":"PostalCodeType"}],"Latitude":44.4468,"Longitude":-95.78914,"Name":"Mouthwatering Restaurant No Reservation ","Url":"https://www.onlyinyourstate.com/minnesota/mouthwatering-restaurant-no-reservation-mn/"},{"Label":"36868 MN-65, Grandy, MN 55029, United States","Country":"USA","State":"MN","County":"Isanti","City":"Grandy","Street":"MN-65","HouseNumber":"36868","PostalCode":"55029","AdditionalData":[{"value":"United States","key":"CountryName"},{"value":"Minnesota","key":"StateName"},{"value":"Isanti","key":"CountyName"},{"value":"P","key":"PostalCodeType"}],"Latitude":45.63699,"Longitude":-93.19469,"Name":"Rural Restaurants ","Url":"https://www.onlyinyourstate.com/minnesota/rural-restaurants-mn/"},{"Label":"1001 3rd St NE, Roseau, MN 56751, United States","Country":"USA","State":"MN","County":"Roseau","City":"Roseau","Street":"3rd St NE","HouseNumber":"1001","PostalCode":"56751","AdditionalData":[{"value":"United States","key":"CountryName"},{"value":"Minnesota","key":"StateName"},{"value":"Roseau","key":"CountyName"},{"value":"N","key":"PostalCodeType"}],"Latitude":48.84816,"Longitude":-95.74866,"Name":"Drive In Restaurants ","Url":"https://www.onlyinyourstate.com/minnesota/drive-in-restaurants-mn/"},{"Label":"7969 Northwoods Loop, Grand Marais, MN 55604, United States","Country":"USA","State":"MN","County":"Cook","City":"Grand Marais","Street":"Northwoods Loop","HouseNumber":"7969","PostalCode":"55604","AdditionalData":[{"value":"United States","key":"CountryName"},{"value":"Minnesota","key":"StateName"},{"value":"Cook","key":"CountyName"},{"value":"N","key":"PostalCodeType"}],"Latitude":48.0536,"Longitude":-90.51238,"Name":"Big Bear Lodge Cabins ","Url":"https://www.onlyinyourstate.com/minnesota/big-bear-lodge-cabins-mn/"},{"Label":"7890 Main St, Vancouver, BC V5X 3K6, Canada","Country":"CAN","State":"BC","County":"Metro Vancouver","City":"Vancouver","District":"Sunset","Street":"Main St","HouseNumber":"7890","PostalCode":"V5X 3K6","AdditionalData":[{"value":"Canada","key":"CountryName"},{"value":"British Columbia","key":"StateName"},{"value":"Metro Vancouver","key":"CountyName"}],"Latitude":49.21378,"Longitude":-123.10174,"Name":"Irish Pub Medieval Castle ","Url":"https://www.onlyinyourstate.com/minnesota/irish-pub-medieval-castle-mn/"},{"Label":"1024 28th St E, Minneapolis, MN 55407, United States","Country":"USA","State":"MN","County":"Hennepin","City":"Minneapolis","District":"Midtown Phillips","Street":"28th St E","HouseNumber":"1024","PostalCode":"55407","AdditionalData":[{"value":"United States","key":"CountryName"},{"value":"Minnesota","key":"StateName"},{"value":"Hennepin","key":"CountyName"},{"value":"N","key":"PostalCodeType"}],"Latitude":44.9520943,"Longitude":-93.2597694,"Name":"Blink And Miss Tiny Restaurants ","Url":"https://www.onlyinyourstate.com/minnesota/blink-and-miss-tiny-restaurants-mn/"},{"Label":"104 Main St W, Pipestone, MN 56164, United States","Country":"USA","State":"MN","County":"Pipestone","City":"Pipestone","Street":"Main St W","HouseNumber":"104","PostalCode":"56164","AdditionalData":[{"value":"United States","key":"CountryName"},{"value":"Minnesota","key":"StateName"},{"value":"Pipestone","key":"CountyName"},{"value":"N","key":"PostalCodeType"}],"Latitude":44.00018,"Longitude":-96.31788,"Name":"Little Known Haunted Places ","Url":"https://www.onlyinyourstate.com/minnesota/little-known-haunted-places-mn/"},{"Label":"9905 Lodge Rd, Isabella, MN 55607, United States","Country":"USA","State":"MN","County":"Lake","City":"Isabella","Street":"Lodge Rd","HouseNumber":"9905","PostalCode":"55607","AdditionalData":[{"value":"United States","key":"CountryName"},{"value":"Minnesota","key":"StateName"},{"value":"Lake","key":"CountyName"},{"value":"N","key":"PostalCodeType"}],"Latitude":47.64689,"Longitude":-91.48136,"Name":"National Forest Lodge ","Url":"https://www.onlyinyourstate.com/minnesota/national-forest-lodge-mn/"},{"Label":"730 Avenue Forest, Notre-Dame-de-l'Île-Perrot, QC J7V, Canada","Country":"CAN","State":"QC","County":"Vaudreuil-Soulanges","City":"Notre-Dame-de-l'Île-Perrot","District":"Les Versants-de-la-Forêt","Street":"Avenue Forest","HouseNumber":"730","PostalCode":"J7V","AdditionalData":[{"value":"Canada","key":"CountryName"},{"value":"Québec","key":"StateName"},{"value":"Vaudreuil-Soulanges","key":"CountyName"}],"Latitude":45.3808975,"Longitude":-73.9556677,"Name":"Thrift Store Road Trip ","Url":"https://www.onlyinyourstate.com/minnesota/thrift-store-road-trip-mn/"},{"Label":"1332, Ранковце, F. Yugoslav Repub. Of Macedonia","Country":"MKD","County":"Североисточен","City":"Ранковце","PostalCode":"1332","AdditionalData":[{"value":"F. Yugoslav Repub. Of Macedonia","key":"CountryName"},{"value":"Североисточен","key":"CountyName"}],"Latitude":42.19631,"Longitude":22.17431,"Name":"Massive Burritos Restaurant ","Url":"https://www.onlyinyourstate.com/minnesota/massive-burritos-restaurant-mn/"},{"Label":"ج ش 24, أبوظبي, الإمارات العربية المتحدة","Country":"ARE","County":"أبوظبي","City":"أبوظبي","District":"ج ش 24","AdditionalData":[{"value":"الإمارات العربية المتحدة","key":"CountryName"},{"value":"أبوظبي","key":"CountyName"}],"Latitude":24.41655,"Longitude":54.58764,"Name":"Most Unique Dairy Queen ","Url":"https://www.onlyinyourstate.com/minnesota/most-unique-dairy-queen-mn/"},{"Label":"1316 4th St SE, Minneapolis, MN 55414, United States","Country":"USA","State":"MN","County":"Hennepin","City":"Minneapolis","District":"Marcy-Holmes","Street":"4th St SE","HouseNumber":"1316","PostalCode":"55414","AdditionalData":[{"value":"United States","key":"CountryName"},{"value":"Minnesota","key":"StateName"},{"value":"Hennepin","key":"CountyName"},{"value":"N","key":"PostalCodeType"}],"Latitude":44.98044,"Longitude":-93.2365,"Name":"Pasty Shop ","Url":"https://www.onlyinyourstate.com/minnesota/pasty-shop-mn/"},{"Label":"1220 Atlantic Ave, Bathurst, NB E2A, Canada","Country":"CAN","State":"NB","County":"Gloucester","City":"Bathurst","Street":"Atlantic Ave","HouseNumber":"1220","PostalCode":"E2A","AdditionalData":[{"value":"Canada","key":"CountryName"},{"value":"New Brunswick","key":"StateName"},{"value":"Gloucester","key":"CountyName"}],"Latitude":47.6182784,"Longitude":-65.6236294,"Name":"Old Train Restaurant ","Url":"https://www.onlyinyourstate.com/minnesota/old-train-restaurant-mn/"},{"Label":"Lynden Rd, Bullarah NSW 2400, Australia","Country":"AUS","State":"NSW","City":"Bullarah","Street":"Lynden Rd","PostalCode":"2400","AdditionalData":[{"value":"Australia","key":"CountryName"},{"value":"New South Wales","key":"StateName"}],"Latitude":-29.43193,"Longitude":149.13382,"Name":"Indoor Beach ","Url":"https://www.onlyinyourstate.com/minnesota/indoor-beach-mn/"},{"Label":"235 Little Rd, Stewiacke, NS B0N, Canada","Country":"CAN","State":"NS","County":"Colchester","City":"Stewiacke","Street":"Little Rd","HouseNumber":"235","PostalCode":"B0N","AdditionalData":[{"value":"Canada","key":"CountryName"},{"value":"Nova Scotia","key":"StateName"},{"value":"Colchester","key":"CountyName"}],"Latitude":45.1204383,"Longitude":-63.363994,"Name":"Biggest Steak Restaurant ","Url":"https://www.onlyinyourstate.com/minnesota/biggest-steak-restaurant-mn/"},{"Label":"1898 E Main St, Old Fort, NC 28762, United States","Country":"USA","State":"NC","County":"McDowell","City":"Old Fort","Street":"E Main St","HouseNumber":"1898","PostalCode":"28762","AdditionalData":[{"value":"United States","key":"CountryName"},{"value":"North Carolina","key":"StateName"},{"value":"McDowell","key":"CountyName"},{"value":"N","key":"PostalCodeType"}],"Latitude":35.6458733,"Longitude":-82.1577964,"Name":"Charming Teahouse ","Url":"https://www.onlyinyourstate.com/minnesota/charming-teahouse-mn/"},{"Label":"5797 N Shore Dr, Duluth, MN 55804, United States","Country":"USA","State":"MN","County":"St Louis","City":"Duluth","Street":"N Shore Dr","HouseNumber":"5797","PostalCode":"55804","AdditionalData":[{"value":"United States","key":"CountryName"},{"value":"Minnesota","key":"StateName"},{"value":"St Louis","key":"CountyName"},{"value":"N","key":"PostalCodeType"}],"Latitude":46.93028,"Longitude":-91.82826,"Name":"Lumberjack Cafe ","Url":"https://www.onlyinyourstate.com/minnesota/lumberjack-cafe-mn/"},{"Label":"28234 MN-34, Akeley, MN 56433, United States","Country":"USA","State":"MN","County":"Hubbard","City":"Akeley","Street":"MN-34","HouseNumber":"28234","PostalCode":"56433","AdditionalData":[{"value":"United States","key":"CountryName"},{"value":"Minnesota","key":"StateName"},{"value":"Hubbard","key":"CountyName"},{"value":"N","key":"PostalCodeType"}],"Latitude":46.9969,"Longitude":-94.77707,"Name":"Small Town German Restaurant ","Url":"https://www.onlyinyourstate.com/minnesota/small-town-german-restaurant-mn/"},{"Label":"135 Lake St, Excelsior, MN 55331, United States","Country":"USA","State":"MN","County":"Hennepin","City":"Excelsior","Street":"Lake St","HouseNumber":"135","PostalCode":"55331","AdditionalData":[{"value":"United States","key":"CountryName"},{"value":"Minnesota","key":"StateName"},{"value":"Hennepin","key":"CountyName"},{"value":"N","key":"PostalCodeType"}],"Latitude":44.9073468,"Longitude":-93.5677569,"Name":"Jaw Dropping Ice Castles ","Url":"https://www.onlyinyourstate.com/minnesota/jaw-dropping-ice-castles-mn/"},{"Label":"99 Powell St E, Guelph, ON N1H, Canada","Country":"CAN","State":"ON","County":"Wellington","City":"Guelph","District":"General Hospital/Riverside Park","Street":"Powell St E","HouseNumber":"99","PostalCode":"N1H","AdditionalData":[{"value":"Canada","key":"CountryName"},{"value":"Ontario","key":"StateName"},{"value":"Wellington","key":"CountyName"}],"Latitude":43.5536771,"Longitude":-80.259977,"Name":"Railroad Themed Bed Breakfast ","Url":"https://www.onlyinyourstate.com/minnesota/railroad-themed-bed-breakfast-mn/"},{"Label":"Avenida del Manzanares, 36, 28011 Madrid (Madrid), España","Country":"ESP","State":"Comunidad de Madrid","County":"Madrid","City":"Madrid","District":"Los Cármenes","Street":"Avenida del Manzanares","HouseNumber":"36","PostalCode":"28011","AdditionalData":[{"value":"España","key":"CountryName"},{"value":"Comunidad de Madrid","key":"StateName"},{"value":"Madrid","key":"CountyName"}],"Latitude":40.40623,"Longitude":-3.72323,"Name":"Mysterious Stones ","Url":"https://www.onlyinyourstate.com/minnesota/mysterious-stones-mn/"},{"Label":"695 Grand Ave, Buena Vista, SK S2V 1A5, Canada","Country":"CAN","State":"SK","County":"Saskatchewan","City":"Buena Vista","Street":"Grand Ave","HouseNumber":"695","PostalCode":"S2V 1A5","AdditionalData":[{"value":"Canada","key":"CountryName"},{"value":"Saskatchewan","key":"StateName"},{"value":"Saskatchewan","key":"CountyName"}],"Latitude":50.7854749,"Longitude":-104.9487508,"Name":"Southern Food Buffet ","Url":"https://www.onlyinyourstate.com/minnesota/southern-food-buffet-mn/"},{"Label":"12400 James Deane Pkwy, Maple Grove, MN 55369, United States","Country":"USA","State":"MN","County":"Hennepin","City":"Maple Grove","Street":"James Deane Pkwy","HouseNumber":"12400","PostalCode":"55369","AdditionalData":[{"value":"United States","key":"CountryName"},{"value":"Minnesota","key":"StateName"},{"value":"Hennepin","key":"CountyName"},{"value":"N","key":"PostalCodeType"}],"Latitude":45.14107,"Longitude":-93.42398,"Name":"Snow Tubing Park ","Url":"https://www.onlyinyourstate.com/minnesota/snow-tubing-park-mn/"},{"Label":"Rue de l'Avenue, 89700 Dannemoine, France","Country":"FRA","State":"Bourgogne-Franche-Comté","County":"Yonne","City":"Dannemoine","Street":"Rue de l'Avenue","PostalCode":"89700","AdditionalData":[{"value":"France","key":"CountryName"},{"value":"Bourgogne-Franche-Comté","key":"StateName"},{"value":"Yonne","key":"CountyName"}],"Latitude":47.89413,"Longitude":3.95601,"Name":"Garden Snow ","Url":"https://www.onlyinyourstate.com/minnesota/garden-snow-mn/"},{"Label":"1313 Hidden Hills Dr, Kelowna, BC V1V, Canada","Country":"CAN","State":"BC","County":"Central Okanagan","City":"Kelowna","District":"McKinley","Street":"Hidden Hills Dr","HouseNumber":"1313","PostalCode":"V1V","AdditionalData":[{"value":"Canada","key":"CountryName"},{"value":"British Columbia","key":"StateName"},{"value":"Central Okanagan","key":"CountyName"}],"Latitude":49.9447512,"Longitude":-119.4387525,"Name":"The Mn Trail That Leads To A Stairway Waterfall Is Heaven On Ear","Url":"https://www.onlyinyourstate.com/minnesota/the-mn-trail-that-leads-to-a-stairway-waterfall-is-heaven-on-earth/"},{"Label":"145 Lake St, St Catharines, ON L2R 5Y4, Canada","Country":"CAN","State":"ON","County":"Niagara","City":"St Catharines","District":"York-Haig","Street":"Lake St","HouseNumber":"145","PostalCode":"L2R 5Y4","AdditionalData":[{"value":"Canada","key":"CountryName"},{"value":"Ontario","key":"StateName"},{"value":"Niagara","key":"CountyName"}],"Latitude":43.16685,"Longitude":-79.25109,"Name":"Chocolate Shop Road Trip ","Url":"https://www.onlyinyourstate.com/minnesota/chocolate-shop-road-trip-mn/"},{"Label":"408 W Highway 61, Grand Marais, MN 55604, United States","Country":"USA","State":"MN","County":"Cook","City":"Grand Marais","Street":"W Highway 61","HouseNumber":"408","PostalCode":"55604","AdditionalData":[{"value":"United States","key":"CountryName"},{"value":"Minnesota","key":"StateName"},{"value":"Cook","key":"CountyName"},{"value":"N","key":"PostalCodeType"}],"Latitude":47.7491751,"Longitude":-90.3393922,"Name":"Tiny But Mighty Restaurants ","Url":"https://www.onlyinyourstate.com/minnesota/tiny-but-mighty-restaurants-mn/"},{"Label":"310 4th Ave, Black River-Matheson, ON P0K, Canada","Country":"CAN","State":"ON","County":"Cochrane","City":"Black River-Matheson","District":"Matheson","Street":"4th Ave","HouseNumber":"310","PostalCode":"P0K","AdditionalData":[{"value":"Canada","key":"CountryName"},{"value":"Ontario","key":"StateName"},{"value":"Cochrane","key":"CountyName"}],"Latitude":48.53083,"Longitude":-80.46366,"Name":"Largest Quilt Shop ","Url":"https://www.onlyinyourstate.com/minnesota/largest-quilt-shop-mn/"},{"Label":"113 E 26th St, Minneapolis, MN 55404, United States","Country":"USA","State":"MN","County":"Hennepin","City":"Minneapolis","District":"Whittier","Street":"E 26th St","HouseNumber":"113","PostalCode":"55404","AdditionalData":[{"value":"United States","key":"CountryName"},{"value":"Minnesota","key":"StateName"},{"value":"Hennepin","key":"CountyName"},{"value":"N","key":"PostalCodeType"}],"Latitude":44.9551,"Longitude":-93.27569,"Name":"Wackiest Restaurants ","Url":"https://www.onlyinyourstate.com/minnesota/wackiest-restaurants-mn/"},{"Label":"20 Naniboujou Trl, Grand Marais, MN 55604, United States","Country":"USA","State":"MN","County":"Cook","City":"Grand Marais","Street":"Naniboujou Trl","HouseNumber":"20","PostalCode":"55604","AdditionalData":[{"value":"United States","key":"CountryName"},{"value":"Minnesota","key":"StateName"},{"value":"Cook","key":"CountyName"},{"value":"N","key":"PostalCodeType"}],"Latitude":47.81678,"Longitude":-90.04964,"Name":"Oddest Places ","Url":"https://www.onlyinyourstate.com/minnesota/oddest-places-mn/"},{"Label":"33039 Old Highway 371, Pequot Lakes, MN 56472, United States","Country":"USA","State":"MN","County":"Crow Wing","City":"Pequot Lakes","Street":"Old Highway 371","HouseNumber":"33039","PostalCode":"56472","AdditionalData":[{"value":"United States","key":"CountryName"},{"value":"Minnesota","key":"StateName"},{"value":"Crow Wing","key":"CountyName"},{"value":"N","key":"PostalCodeType"}],"Latitude":46.63191,"Longitude":-94.32474,"Name":"Quaint Roadside Restaurant ","Url":"https://www.onlyinyourstate.com/minnesota/quaint-roadside-restaurant-mn/"},{"Label":"193 Pennsylvania Ave, Concord, ON L4K, Canada","Country":"CAN","State":"ON","County":"York","City":"Vaughan","District":"Concord","Street":"Pennsylvania Ave","HouseNumber":"193","PostalCode":"L4K","AdditionalData":[{"value":"Canada","key":"CountryName"},{"value":"Ontario","key":"StateName"},{"value":"York","key":"CountyName"}],"Latitude":43.8020398,"Longitude":-79.5342219,"Name":"Historic Train Ride ","Url":"https://www.onlyinyourstate.com/minnesota/historic-train-ride-mn/"},{"Label":"9700 170th St E, Nerstrand, MN 55053, United States","Country":"USA","State":"MN","County":"Rice","City":"Nerstrand","Street":"170th St E","HouseNumber":"9700","PostalCode":"55053","AdditionalData":[{"value":"United States","key":"CountryName"},{"value":"Minnesota","key":"StateName"},{"value":"Rice","key":"CountyName"},{"value":"N","key":"PostalCodeType"}],"Latitude":44.34225,"Longitude":-93.10516,"Name":"Best Places See Leaves Fall ","Url":"https://www.onlyinyourstate.com/minnesota/best-places-see-leaves-fall-mn/"},{"Label":"12551 Voyageur Ln, Pine City, MN 55063, United States","Country":"USA","State":"MN","County":"Pine","City":"Pine City","Street":"Voyageur Ln","HouseNumber":"12551","PostalCode":"55063","AdditionalData":[{"value":"United States","key":"CountryName"},{"value":"Minnesota","key":"StateName"},{"value":"Pine","key":"CountyName"},{"value":"N","key":"PostalCodeType"}],"Latitude":45.82219,"Longitude":-93.00694,"Name":"Historic Park Best Kept Secret ","Url":"https://www.onlyinyourstate.com/minnesota/historic-park-best-kept-secret-mn/"},{"Label":"950 MN-24, Clearwater, MN 55320, United States","Country":"USA","State":"MN","County":"Wright","City":"Clearwater","Street":"MN-24","HouseNumber":"950","PostalCode":"55320","AdditionalData":[{"value":"United States","key":"CountryName"},{"value":"Minnesota","key":"StateName"},{"value":"Wright","key":"CountyName"},{"value":"N","key":"PostalCodeType"}],"Latitude":45.41197,"Longitude":-94.05397,"Name":"Gas Station Bakery ","Url":"https://www.onlyinyourstate.com/minnesota/gas-station-bakery-mn/"},{"Label":"9-11 Beach St, Port Melbourne VIC 3207, Australia","Country":"AUS","State":"VIC","City":"Melbourne","District":"Port Melbourne","Street":"Beach St","HouseNumber":"9-11","PostalCode":"3207","AdditionalData":[{"value":"Australia","key":"CountryName"},{"value":"Victoria","key":"StateName"}],"Latitude":-37.84355,"Longitude":144.94033,"Name":"River Cabin Resort ","Url":"https://www.onlyinyourstate.com/minnesota/river-cabin-resort-mn/"},{"Label":"SW 17th St, Gresham, OR 97080, United States","Country":"USA","State":"OR","County":"Multnomah","City":"Gresham","District":"Gresham-Gresham Butte","Street":"SW 17th St","PostalCode":"97080","AdditionalData":[{"value":"United States","key":"CountryName"},{"value":"Oregon","key":"StateName"},{"value":"Multnomah","key":"CountyName"},{"value":"N","key":"PostalCodeType"}],"Latitude":45.48441,"Longitude":-122.44957,"Name":"Hidden Waterfall ","Url":"https://www.onlyinyourstate.com/minnesota/hidden-waterfall-mn/"},{"Label":"Marshall Ave, Warrawee NSW 2074, Australia","Country":"AUS","State":"NSW","City":"Sydney","District":"Warrawee","Street":"Marshall Ave","PostalCode":"2074","AdditionalData":[{"value":"Australia","key":"CountryName"},{"value":"New South Wales","key":"StateName"}],"Latitude":-33.72912,"Longitude":151.11772,"Name":"Ice Cream Parlor ","Url":"https://www.onlyinyourstate.com/minnesota/ice-cream-parlor-mn/"},{"Label":"200 Westlake Dr, Westlake QLD 4074, Australia","Country":"AUS","State":"QLD","City":"Brisbane","District":"Westlake","Street":"Westlake Dr","HouseNumber":"200","PostalCode":"4074","AdditionalData":[{"value":"Australia","key":"CountryName"},{"value":"Queensland","key":"StateName"}],"Latitude":-27.54462,"Longitude":152.9148,"Name":"Unusual Restaurant ","Url":"https://www.onlyinyourstate.com/minnesota/unusual-restaurant-mn/"},{"Label":"223 Scenic Dr, Colongra NSW 2262, Australia","Country":"AUS","State":"NSW","City":"Central Coast","District":"Colongra","Street":"Scenic Dr","HouseNumber":"223","PostalCode":"2262","AdditionalData":[{"value":"Australia","key":"CountryName"},{"value":"New South Wales","key":"StateName"}],"Latitude":-33.22685,"Longitude":151.54093,"Name":"Small Town Candy Store ","Url":"https://www.onlyinyourstate.com/minnesota/small-town-candy-store-mn/"},{"Label":"4825 Minnehaha Ave, Minneapolis, MN 55417, United States","Country":"USA","State":"MN","County":"Hennepin","City":"Minneapolis","District":"Hiawatha","Street":"Minnehaha Ave","HouseNumber":"4825","PostalCode":"55417","AdditionalData":[{"value":"United States","key":"CountryName"},{"value":"Minnesota","key":"StateName"},{"value":"Hennepin","key":"CountyName"},{"value":"N","key":"PostalCodeType"}],"Latitude":44.91587,"Longitude":-93.21258,"Name":"Fresh Fish Restaurant ","Url":"https://www.onlyinyourstate.com/minnesota/fresh-fish-restaurant-mn/"},{"Label":"109 Parkway Ave, Markham, ON L3P 2H1, Canada","Country":"CAN","State":"ON","County":"York","City":"Markham","Street":"Parkway Ave","HouseNumber":"109","PostalCode":"L3P 2H1","AdditionalData":[{"value":"Canada","key":"CountryName"},{"value":"Ontario","key":"StateName"},{"value":"York","key":"CountyName"}],"Latitude":43.88358,"Longitude":-79.2463,"Name":"Float Trip ","Url":"https://www.onlyinyourstate.com/minnesota/float-trip-mn/"},{"Label":"Rua Cento e Vinte e Quatro, Sul, Goiânia - GO, 74093-060, Brasil","Country":"BRA","State":"GO","City":"Goiânia","District":"Sul","Street":"Rua Cento e Vinte e Quatro","PostalCode":"74093-060","AdditionalData":[{"value":"Brasil","key":"CountryName"},{"value":"Goiás","key":"StateName"}],"Latitude":-16.69078,"Longitude":-49.25466,"Name":"Small Town Pizza Place ","Url":"https://www.onlyinyourstate.com/minnesota/small-town-pizza-place-mn/"},{"Label":"623 7th Ave, Keremeos, BC V0X, Canada","Country":"CAN","State":"BC","County":"Okanagan-Similkameen","City":"Keremeos","Street":"7th Ave","HouseNumber":"623","PostalCode":"V0X","AdditionalData":[{"value":"Canada","key":"CountryName"},{"value":"British Columbia","key":"StateName"},{"value":"Okanagan-Similkameen","key":"CountyName"}],"Latitude":49.20487,"Longitude":-119.82374,"Name":"Humble Little Restaurant ","Url":"https://www.onlyinyourstate.com/minnesota/humble-little-restaurant-mn/"},{"Label":"38914 County Road 186, Sauk Centre, MN 56378, United States","Country":"USA","State":"MN","County":"Stearns","City":"Sauk Centre","Street":"County Road 186","HouseNumber":"38914","PostalCode":"56378","AdditionalData":[{"value":"United States","key":"CountryName"},{"value":"Minnesota","key":"StateName"},{"value":"Stearns","key":"CountyName"},{"value":"N","key":"PostalCodeType"}],"Latitude":45.69997,"Longitude":-94.91946,"Name":"Small Town Restaurants ","Url":"https://www.onlyinyourstate.com/minnesota/small-town-restaurants-mn/"},{"Label":"10424 Squaw Point Rd, Brainerd, MN 56401, United States","Country":"USA","State":"MN","County":"Cass","City":"Brainerd","Street":"Squaw Point Rd","HouseNumber":"10424","PostalCode":"56401","AdditionalData":[{"value":"United States","key":"CountryName"},{"value":"Minnesota","key":"StateName"},{"value":"Cass","key":"CountyName"},{"value":"N","key":"PostalCodeType"}],"Latitude":46.42271,"Longitude":-94.36086,"Name":"Dockside Dining ","Url":"https://www.onlyinyourstate.com/minnesota/dockside-dining-mn/"},{"Label":"180 Miller Rd, Champlin, MN 55316, United States","Country":"USA","State":"MN","County":"Hennepin","City":"Champlin","Street":"Miller Rd","HouseNumber":"180","PostalCode":"55316","AdditionalData":[{"value":"United States","key":"CountryName"},{"value":"Minnesota","key":"StateName"},{"value":"Hennepin","key":"CountyName"},{"value":"N","key":"PostalCodeType"}],"Latitude":45.1882,"Longitude":-93.39557,"Name":"Bbq Joints ","Url":"https://www.onlyinyourstate.com/minnesota/bbq-joints-mn/"},{"Label":"2202 Mountain Shadow Dr, Duluth, MN 55811, United States","Country":"USA","State":"MN","County":"St Louis","City":"Duluth","District":"Duluth Heights","Street":"Mountain Shadow Dr","HouseNumber":"2202","PostalCode":"55811","AdditionalData":[{"value":"United States","key":"CountryName"},{"value":"Minnesota","key":"StateName"},{"value":"St Louis","key":"CountyName"},{"value":"N","key":"PostalCodeType"}],"Latitude":46.80555,"Longitude":-92.16519,"Name":"Best Milkshakes ","Url":"https://www.onlyinyourstate.com/minnesota/best-milkshakes-mn/"},{"Label":"Avenida del Manzanares, 36, 28011 Madrid (Madrid), España","Country":"ESP","State":"Comunidad de Madrid","County":"Madrid","City":"Madrid","District":"Los Cármenes","Street":"Avenida del Manzanares","HouseNumber":"36","PostalCode":"28011","AdditionalData":[{"value":"España","key":"CountryName"},{"value":"Comunidad de Madrid","key":"StateName"},{"value":"Madrid","key":"CountyName"}],"Latitude":40.40623,"Longitude":-3.72323,"Name":"Underrated Natural Wonder ","Url":"https://www.onlyinyourstate.com/minnesota/underrated-natural-wonder-mn/"},{"Label":"505 W Superior St, Duluth, MN 55802, United States","Country":"USA","State":"MN","County":"St Louis","City":"Duluth","District":"Downtown Duluth","Street":"W Superior St","HouseNumber":"505","PostalCode":"55802","AdditionalData":[{"value":"United States","key":"CountryName"},{"value":"Minnesota","key":"StateName"},{"value":"St Louis","key":"CountyName"},{"value":"N","key":"PostalCodeType"}],"Latitude":46.78189,"Longitude":-92.10539,"Name":"Restaurant Above The Clouds ","Url":"https://www.onlyinyourstate.com/minnesota/restaurant-above-the-clouds-mn/"},{"Label":"3684 54th Ave NW, Williams, MN 56686, United States","Country":"USA","State":"MN","County":"Lake of the Woods","City":"Williams","Street":"54th Ave NW","HouseNumber":"3684","PostalCode":"56686","AdditionalData":[{"value":"United States","key":"CountryName"},{"value":"Minnesota","key":"StateName"},{"value":"Lake of the Woods","key":"CountyName"},{"value":"N","key":"PostalCodeType"}],"Latitude":48.84766,"Longitude":-94.84987,"Name":"Secluded White Sand Beach ","Url":"https://www.onlyinyourstate.com/minnesota/secluded-white-sand-beach-mn/"},{"Label":"County Rd, Chatham, VA 24531, United States","Country":"USA","State":"VA","County":"Pittsylvania","City":"Chatham","Street":"County Rd","PostalCode":"24531","AdditionalData":[{"value":"United States","key":"CountryName"},{"value":"Virginia","key":"StateName"},{"value":"Pittsylvania","key":"CountyName"},{"value":"N","key":"PostalCodeType"}],"Latitude":36.75151,"Longitude":-79.54511,"Name":"Restaurant Waterfall View ","Url":"https://www.onlyinyourstate.com/minnesota/restaurant-waterfall-view-mn/"},{"Label":"7611 Gunflint Trl, Grand Marais, MN 55604, United States","Country":"USA","State":"MN","County":"Cook","City":"Grand Marais","Street":"Gunflint Trl","HouseNumber":"7611","PostalCode":"55604","AdditionalData":[{"value":"United States","key":"CountryName"},{"value":"Minnesota","key":"StateName"},{"value":"Cook","key":"CountyName"},{"value":"N","key":"PostalCodeType"}],"Latitude":48.04321,"Longitude":-90.47607,"Name":"Gigantic Pancakes ","Url":"https://www.onlyinyourstate.com/minnesota/gigantic-pancakes-mn/"},{"Label":"131 Main St, St George, NB E5C 3J8, Canada","Country":"CAN","State":"NB","County":"Charlotte","City":"St George","Street":"Main St","HouseNumber":"131","PostalCode":"E5C 3J8","AdditionalData":[{"value":"Canada","key":"CountryName"},{"value":"New Brunswick","key":"StateName"},{"value":"Charlotte","key":"CountyName"}],"Latitude":45.13436,"Longitude":-66.81001,"Name":"Charming Old Fashioned Restaurant ","Url":"https://www.onlyinyourstate.com/minnesota/charming-old-fashioned-restaurant-mn/"},{"Label":"5204 S Avenue, Bloomington, MN 55425, United States","Country":"USA","State":"MN","County":"Hennepin","City":"Bloomington","District":"East Bloomington","Street":"S Avenue","HouseNumber":"5204","PostalCode":"55425","AdditionalData":[{"value":"United States","key":"CountryName"},{"value":"Minnesota","key":"StateName"},{"value":"Hennepin","key":"CountyName"},{"value":"N","key":"PostalCodeType"}],"Latitude":44.8535613,"Longitude":-93.2408354,"Name":"Quirky Restaurant Delicious Food ","Url":"https://www.onlyinyourstate.com/minnesota/quirky-restaurant-delicious-food-mn/"},{"Label":"W 14th St, Mercedes, TX 78570, United States","Country":"USA","State":"TX","County":"Hidalgo","City":"Mercedes","Street":"W 14th St","PostalCode":"78570","AdditionalData":[{"value":"United States","key":"CountryName"},{"value":"Texas","key":"StateName"},{"value":"Hidalgo","key":"CountyName"},{"value":"N","key":"PostalCodeType"}],"Latitude":26.13795,"Longitude":-97.91781,"Name":"Antique Shop Vintage Lover ","Url":"https://www.onlyinyourstate.com/minnesota/antique-shop-vintage-lover-mn/"},{"Label":"Heron Rd, Southport, NC 28461, United States","Country":"USA","State":"NC","County":"Brunswick","City":"Southport","Street":"Heron Rd","PostalCode":"28461","AdditionalData":[{"value":"United States","key":"CountryName"},{"value":"North Carolina","key":"StateName"},{"value":"Brunswick","key":"CountyName"},{"value":"N","key":"PostalCodeType"}],"Latitude":34.02454,"Longitude":-78.03491,"Name":"Fairy Tale Campground ","Url":"https://www.onlyinyourstate.com/minnesota/fairy-tale-campground-mn/"},{"Label":"202 Avenue E, Cloquet, MN 55720, United States","Country":"USA","State":"MN","County":"Carlton","City":"Cloquet","Street":"Avenue E","HouseNumber":"202","PostalCode":"55720","AdditionalData":[{"value":"United States","key":"CountryName"},{"value":"Minnesota","key":"StateName"},{"value":"Carlton","key":"CountyName"},{"value":"N","key":"PostalCodeType"}],"Latitude":46.72047,"Longitude":-92.46368,"Name":"Gas Station Architectural Wonder ","Url":"https://www.onlyinyourstate.com/minnesota/gas-station-architectural-wonder-mn/"},{"Label":"40 S 7th St, Minneapolis, MN 55402, United States","Country":"USA","State":"MN","County":"Hennepin","City":"Minneapolis","District":"Downtown West","Street":"S 7th St","HouseNumber":"40","PostalCode":"55402","AdditionalData":[{"value":"United States","key":"CountryName"},{"value":"Minnesota","key":"StateName"},{"value":"Hennepin","key":"CountyName"},{"value":"N","key":"PostalCodeType"}],"Latitude":44.97737,"Longitude":-93.27309,"Name":"All You Can Eat Donut Brunch ","Url":"https://www.onlyinyourstate.com/minnesota/all-you-can-eat-donut-brunch-mn/"},{"Label":"County Road 29, Lewiston, MN 55952, United States","Country":"USA","State":"MN","County":"Winona","City":"Lewiston","Street":"County Road 29","PostalCode":"55952","AdditionalData":[{"value":"United States","key":"CountryName"},{"value":"Minnesota","key":"StateName"},{"value":"Winona","key":"CountyName"},{"value":"N","key":"PostalCodeType"}],"Latitude":43.94685,"Longitude":-91.87036,"Name":"Oldest Grocery Store ","Url":"https://www.onlyinyourstate.com/minnesota/oldest-grocery-store-mn/"},{"Label":"36868 MN-65, Grandy, MN 55029, United States","Country":"USA","State":"MN","County":"Isanti","City":"Grandy","Street":"MN-65","HouseNumber":"36868","PostalCode":"55029","AdditionalData":[{"value":"United States","key":"CountryName"},{"value":"Minnesota","key":"StateName"},{"value":"Isanti","key":"CountyName"},{"value":"P","key":"PostalCodeType"}],"Latitude":45.63699,"Longitude":-93.19469,"Name":"Humble Little Restaurants ","Url":"https://www.onlyinyourstate.com/minnesota/humble-little-restaurants-mn/"},{"Label":"3609 67th Ave NW, Willmar, MN 56201, United States","Country":"USA","State":"MN","County":"Kandiyohi","City":"Willmar","Street":"67th Ave NW","HouseNumber":"3609","PostalCode":"56201","AdditionalData":[{"value":"United States","key":"CountryName"},{"value":"Minnesota","key":"StateName"},{"value":"Kandiyohi","key":"CountyName"},{"value":"N","key":"PostalCodeType"}],"Latitude":45.18438,"Longitude":-95.08741,"Name":"Market On The Farm 2018 Summer ","Url":"https://www.onlyinyourstate.com/minnesota/market-on-the-farm-2018-summer-mn/"},{"Label":"880 Smith Ave, Coquitlam, BC V3J 2X2, Canada","Country":"CAN","State":"BC","County":"Metro Vancouver","City":"Coquitlam","District":"Cariboo/Burquitlam","Street":"Smith Ave","HouseNumber":"880","PostalCode":"V3J 2X2","AdditionalData":[{"value":"Canada","key":"CountryName"},{"value":"British Columbia","key":"StateName"},{"value":"Metro Vancouver","key":"CountyName"}],"Latitude":49.2597851,"Longitude":-122.8722936,"Name":"3 Story Antique Shop ","Url":"https://www.onlyinyourstate.com/minnesota/3-story-antique-shop-mn/"},{"Label":"104 Washington St, Bexley NSW 2207, Australia","Country":"AUS","State":"NSW","City":"Sydney","District":"Bexley","Street":"Washington St","HouseNumber":"104","PostalCode":"2207","AdditionalData":[{"value":"Australia","key":"CountryName"},{"value":"New South Wales","key":"StateName"}],"Latitude":-33.96011,"Longitude":151.12579,"Name":"Best Walleye Sandwiches ","Url":"https://www.onlyinyourstate.com/minnesota/best-walleye-sandwiches-mn/"},{"Label":"56470, Park Rapids, MN, United States","Country":"USA","State":"MN","County":"Hubbard","City":"Park Rapids","PostalCode":"56470","AdditionalData":[{"value":"United States","key":"CountryName"},{"value":"Minnesota","key":"StateName"},{"value":"Hubbard","key":"CountyName"},{"value":"N","key":"PostalCodeType"}],"Latitude":47.00789,"Longitude":-95.02003,"Name":"Logging Camp Restaurant ","Url":"https://www.onlyinyourstate.com/minnesota/logging-camp-restaurant-mn/"},{"Label":"2001 Hunter Frontage Rd, Christina Lake, BC V0H, Canada","Country":"CAN","State":"BC","County":"Kootenay Boundary","City":"Kootenay Boundary","District":"Christina Lake","Street":"Hunter Frontage Rd","HouseNumber":"2001","PostalCode":"V0H","AdditionalData":[{"value":"Canada","key":"CountryName"},{"value":"British Columbia","key":"StateName"},{"value":"Kootenay Boundary","key":"CountyName"}],"Latitude":49.0598006,"Longitude":-118.2135106,"Name":"Restaurant Incredible Views ","Url":"https://www.onlyinyourstate.com/minnesota/restaurant-incredible-views-mn/"},{"Label":"806 Main St, Moncton, NB E1C 1E6, Canada","Country":"CAN","State":"NB","County":"Westmorland","City":"Moncton","Street":"Main St","HouseNumber":"806","PostalCode":"E1C 1E6","AdditionalData":[{"value":"Canada","key":"CountryName"},{"value":"New Brunswick","key":"StateName"},{"value":"Westmorland","key":"CountyName"}],"Latitude":46.08826,"Longitude":-64.77809,"Name":"Riverside Restaurant Best Burgers ","Url":"https://www.onlyinyourstate.com/minnesota/riverside-restaurant-best-burgers-mn/"},{"Label":"298 University Ave, Saint John, NB E2K, Canada","Country":"CAN","State":"NB","County":"Saint John","City":"Saint John","Street":"University Ave","HouseNumber":"298","PostalCode":"E2K","AdditionalData":[{"value":"Canada","key":"CountryName"},{"value":"New Brunswick","key":"StateName"},{"value":"Saint John","key":"CountyName"}],"Latitude":45.2985259,"Longitude":-66.0857584,"Name":"First Of Its Kind Restaurant ","Url":"https://www.onlyinyourstate.com/minnesota/first-of-its-kind-restaurant-mn/"},{"Label":"1802 County Road 137, Waite Park, MN 56387, United States","Country":"USA","State":"MN","County":"Stearns","City":"Waite Park","Street":"County Road 137","HouseNumber":"1802","PostalCode":"56387","AdditionalData":[{"value":"United States","key":"CountryName"},{"value":"Minnesota","key":"StateName"},{"value":"Stearns","key":"CountyName"},{"value":"N","key":"PostalCodeType"}],"Latitude":45.53792,"Longitude":-94.24106,"Name":"Swimming Hole Hike ","Url":"https://www.onlyinyourstate.com/minnesota/swimming-hole-hike-mn/"},{"Label":"14848 Highway 7 E, Hutchinson, MN 55350, United States","Country":"USA","State":"MN","County":"McLeod","City":"Hutchinson","Street":"Highway 7 E","HouseNumber":"14848","PostalCode":"55350","AdditionalData":[{"value":"United States","key":"CountryName"},{"value":"Minnesota","key":"StateName"},{"value":"McLeod","key":"CountyName"},{"value":"N","key":"PostalCodeType"}],"Latitude":44.8927149,"Longitude":-94.2941957,"Name":"Small Town Wineries ","Url":"https://www.onlyinyourstate.com/minnesota/small-town-wineries-mn/"},{"Label":"40124 State Highway 6, Emily, MN 56447, United States","Country":"USA","State":"MN","County":"Crow Wing","City":"Emily","Street":"State Highway 6","HouseNumber":"40124","PostalCode":"56447","AdditionalData":[{"value":"United States","key":"CountryName"},{"value":"Minnesota","key":"StateName"},{"value":"Crow Wing","key":"CountyName"},{"value":"N","key":"PostalCodeType"}],"Latitude":46.73291,"Longitude":-93.95781,"Name":"Country Restaurants ","Url":"https://www.onlyinyourstate.com/minnesota/country-restaurants-mn/"},{"Label":"505 W Superior St, Duluth, MN 55802, United States","Country":"USA","State":"MN","County":"St Louis","City":"Duluth","District":"Downtown Duluth","Street":"W Superior St","HouseNumber":"505","PostalCode":"55802","AdditionalData":[{"value":"United States","key":"CountryName"},{"value":"Minnesota","key":"StateName"},{"value":"St Louis","key":"CountyName"},{"value":"N","key":"PostalCodeType"}],"Latitude":46.78189,"Longitude":-92.10539,"Name":"Rotating Restaurant ","Url":"https://www.onlyinyourstate.com/minnesota/rotating-restaurant-mn/"},{"Label":"99 E Oak St, Redwood Falls, MN 56283, United States","Country":"USA","State":"MN","County":"Redwood","City":"Redwood Falls","Street":"E Oak St","HouseNumber":"99","PostalCode":"56283","AdditionalData":[{"value":"United States","key":"CountryName"},{"value":"Minnesota","key":"StateName"},{"value":"Redwood","key":"CountyName"},{"value":"N","key":"PostalCodeType"}],"Latitude":44.55168,"Longitude":-95.12422,"Name":"Zoo Adventure Park ","Url":"https://www.onlyinyourstate.com/minnesota/zoo-adventure-park-mn/"},{"Label":"1946 Johnson St NE, Minneapolis, MN 55418, United States","Country":"USA","State":"MN","County":"Hennepin","City":"Minneapolis","District":"Windom Park","Street":"Johnson St NE","HouseNumber":"1946","PostalCode":"55418","AdditionalData":[{"value":"United States","key":"CountryName"},{"value":"Minnesota","key":"StateName"},{"value":"Hennepin","key":"CountyName"},{"value":"N","key":"PostalCodeType"}],"Latitude":45.00935,"Longitude":-93.23737,"Name":"Best Sausage Sandwich ","Url":"https://www.onlyinyourstate.com/minnesota/best-sausage-sandwich-mn/"},{"Label":"891 County Road 35 W, Buffalo, MN 55313, United States","Country":"USA","State":"MN","County":"Wright","City":"Buffalo","Street":"County Road 35 W","HouseNumber":"891","PostalCode":"55313","AdditionalData":[{"value":"United States","key":"CountryName"},{"value":"Minnesota","key":"StateName"},{"value":"Wright","key":"CountyName"},{"value":"N","key":"PostalCodeType"}],"Latitude":45.17151,"Longitude":-93.90829,"Name":"Best Pub Food Midwest ","Url":"https://www.onlyinyourstate.com/minnesota/best-pub-food-midwest-mn/"},{"Label":"1410 161st St, Luverne, MN 56156, United States","Country":"USA","State":"MN","County":"Rock","City":"Luverne","Street":"161st St","HouseNumber":"1410","PostalCode":"56156","AdditionalData":[{"value":"United States","key":"CountryName"},{"value":"Minnesota","key":"StateName"},{"value":"Rock","key":"CountyName"},{"value":"N","key":"PostalCodeType"}],"Latitude":43.71641,"Longitude":-96.19062,"Name":"Overlooked Destinations ","Url":"https://www.onlyinyourstate.com/minnesota/overlooked-destinations-mn/"},{"Label":"116 Main St E, Wabasha, MN 55981, United States","Country":"USA","State":"MN","County":"Wabasha","City":"Wabasha","Street":"Main St E","HouseNumber":"116","PostalCode":"55981","AdditionalData":[{"value":"United States","key":"CountryName"},{"value":"Minnesota","key":"StateName"},{"value":"Wabasha","key":"CountyName"},{"value":"N","key":"PostalCodeType"}],"Latitude":44.38303,"Longitude":-92.03146,"Name":"Small Town Cafe Omelet ","Url":"https://www.onlyinyourstate.com/minnesota/small-town-cafe-omelet-mn/"},{"Label":"1601 E Lake St, Minneapolis, MN 55407, United States","Country":"USA","State":"MN","County":"Hennepin","City":"Minneapolis","District":"Powderhorn Park","Street":"E Lake St","HouseNumber":"1601","PostalCode":"55407","AdditionalData":[{"value":"United States","key":"CountryName"},{"value":"Minnesota","key":"StateName"},{"value":"Hennepin","key":"CountyName"},{"value":"N","key":"PostalCodeType"}],"Latitude":44.94808,"Longitude":-93.25103,"Name":"Nordic Marketplace ","Url":"https://www.onlyinyourstate.com/minnesota/nordic-marketplace-mn/"},{"Label":"7192 W Highway 61, Tofte, MN 55615, United States","Country":"USA","State":"MN","County":"Cook","City":"Tofte","Street":"W Highway 61","HouseNumber":"7192","PostalCode":"55615","AdditionalData":[{"value":"United States","key":"CountryName"},{"value":"Minnesota","key":"StateName"},{"value":"Cook","key":"CountyName"},{"value":"N","key":"PostalCodeType"}],"Latitude":47.57415,"Longitude":-90.83527,"Name":"Most Beautiful Restaurants ","Url":"https://www.onlyinyourstate.com/minnesota/most-beautiful-restaurants-mn/"},{"Label":"New Market, Elko New Market, MN, United States","Country":"USA","State":"MN","County":"Scott","City":"Elko New Market","District":"New Market","PostalCode":"55054","AdditionalData":[{"value":"United States","key":"CountryName"},{"value":"Minnesota","key":"StateName"},{"value":"Scott","key":"CountyName"},{"value":"N","key":"PostalCodeType"}],"Latitude":44.57307,"Longitude":-93.35197,"Name":"Firehouse Restaurant ","Url":"https://www.onlyinyourstate.com/minnesota/firehouse-restaurant-mn/"},{"Label":"1900 Marshall St NE, Minneapolis, MN 55418, United States","Country":"USA","State":"MN","County":"Hennepin","City":"Minneapolis","District":"Bottineau","Street":"Marshall St NE","HouseNumber":"1900","PostalCode":"55418","AdditionalData":[{"value":"United States","key":"CountryName"},{"value":"Minnesota","key":"StateName"},{"value":"Hennepin","key":"CountyName"},{"value":"N","key":"PostalCodeType"}],"Latitude":45.00752,"Longitude":-93.27233,"Name":"Coolest Places To Dine ","Url":"https://www.onlyinyourstate.com/minnesota/coolest-places-to-dine-mn/"},{"Label":"3401 State Highway 210 W, Fergus Falls, MN 56537, United States","Country":"USA","State":"MN","County":"Otter Tail","City":"Fergus Falls","Street":"State Highway 210 W","HouseNumber":"3401","PostalCode":"56537","AdditionalData":[{"value":"United States","key":"CountryName"},{"value":"Minnesota","key":"StateName"},{"value":"Otter Tail","key":"CountyName"},{"value":"N","key":"PostalCodeType"}],"Latitude":46.28899,"Longitude":-96.12758,"Name":"Secret Restaurants ","Url":"https://www.onlyinyourstate.com/minnesota/secret-restaurants-mn/"},{"Label":"522 Lincoln Dr, East Bethel, MN 55092, United States","Country":"USA","State":"MN","County":"Anoka","City":"East Bethel","Street":"Lincoln Dr","HouseNumber":"522","PostalCode":"55092","AdditionalData":[{"value":"United States","key":"CountryName"},{"value":"Minnesota","key":"StateName"},{"value":"Anoka","key":"CountyName"},{"value":"N","key":"PostalCodeType"}],"Latitude":45.3065449,"Longitude":-93.1555338,"Name":"Best Bbq Sandwiches ","Url":"https://www.onlyinyourstate.com/minnesota/best-bbq-sandwiches-mn/"},{"Label":"12977 Chippewa Trl, Kabetogama, MN 56669, United States","Country":"USA","State":"MN","County":"St Louis","City":"Kabetogama","Street":"Chippewa Trl","HouseNumber":"12977","PostalCode":"56669","AdditionalData":[{"value":"United States","key":"CountryName"},{"value":"Minnesota","key":"StateName"},{"value":"St Louis","key":"CountyName"},{"value":"N","key":"PostalCodeType"}],"Latitude":48.48954,"Longitude":-93.08043,"Name":"Gorgeous Hotel Boat ","Url":"https://www.onlyinyourstate.com/minnesota/gorgeous-hotel-boat-mn/"},{"Label":"99 E Oak St, Redwood Falls, MN 56283, United States","Country":"USA","State":"MN","County":"Redwood","City":"Redwood Falls","Street":"E Oak St","HouseNumber":"99","PostalCode":"56283","AdditionalData":[{"value":"United States","key":"CountryName"},{"value":"Minnesota","key":"StateName"},{"value":"Redwood","key":"CountyName"},{"value":"N","key":"PostalCodeType"}],"Latitude":44.55168,"Longitude":-95.12422,"Name":"Most Underrated Places ","Url":"https://www.onlyinyourstate.com/minnesota/most-underrated-places-mn/"},{"Label":"14 Country House Ln, McGregor, MN 55760, United States","Country":"USA","State":"MN","County":"Aitkin","City":"McGregor","Street":"Country House Ln","HouseNumber":"14","PostalCode":"55760","AdditionalData":[{"value":"United States","key":"CountryName"},{"value":"Minnesota","key":"StateName"},{"value":"Aitkin","key":"CountyName"},{"value":"N","key":"PostalCodeType"}],"Latitude":46.6090666,"Longitude":-93.3098168,"Name":"Countryside Restaurant ","Url":"https://www.onlyinyourstate.com/minnesota/countryside-restaurant-mn/"},{"Label":"372 Hungry Jack Rd, Grand Marais, MN 55604, United States","Country":"USA","State":"MN","County":"Cook","City":"Grand Marais","Street":"Hungry Jack Rd","HouseNumber":"372","PostalCode":"55604","AdditionalData":[{"value":"United States","key":"CountryName"},{"value":"Minnesota","key":"StateName"},{"value":"Cook","key":"CountyName"},{"value":"N","key":"PostalCodeType"}],"Latitude":48.05994,"Longitude":-90.45355,"Name":"Log Cabin Campground ","Url":"https://www.onlyinyourstate.com/minnesota/log-cabin-campground-mn/"},{"Label":"University Ave, Saint John, NB E2K, Canada","Country":"CAN","State":"NB","County":"Saint John","City":"Saint John","Street":"University Ave","PostalCode":"E2K","AdditionalData":[{"value":"Canada","key":"CountryName"},{"value":"New Brunswick","key":"StateName"},{"value":"Saint John","key":"CountyName"}],"Latitude":45.29849,"Longitude":-66.08558,"Name":"Big Bookstore ","Url":"https://www.onlyinyourstate.com/minnesota/big-bookstore-mn/"},{"Label":"24257 Riverside Dr, Long Prairie, MN 56347, United States","Country":"USA","State":"MN","County":"Todd","City":"Long Prairie","Street":"Riverside Dr","HouseNumber":"24257","PostalCode":"56347","AdditionalData":[{"value":"United States","key":"CountryName"},{"value":"Minnesota","key":"StateName"},{"value":"Todd","key":"CountyName"},{"value":"N","key":"PostalCodeType"}],"Latitude":45.98193,"Longitude":-94.86984,"Name":"Nostalgic Places ","Url":"https://www.onlyinyourstate.com/minnesota/nostalgic-places-mn/"},{"Label":"1 Twins Way, Minneapolis, MN 55403, United States","Country":"USA","State":"MN","County":"Hennepin","City":"Minneapolis","District":"North Loop","Street":"Twins Way","HouseNumber":"1","PostalCode":"55403","AdditionalData":[{"value":"United States","key":"CountryName"},{"value":"Minnesota","key":"StateName"},{"value":"Hennepin","key":"CountyName"},{"value":"N","key":"PostalCodeType"}],"Latitude":44.98058,"Longitude":-93.27855,"Name":"Best Places To Propose Minneapol","Url":"https://www.onlyinyourstate.com/minnesota/best-places-to-propose-minneapolis/"},{"Label":"39051 County Road 66, Crosslake, MN 56442, United States","Country":"USA","State":"MN","County":"Crow Wing","City":"Crosslake","Street":"County Road 66","HouseNumber":"39051","PostalCode":"56442","AdditionalData":[{"value":"United States","key":"CountryName"},{"value":"Minnesota","key":"StateName"},{"value":"Crow Wing","key":"CountyName"},{"value":"N","key":"PostalCodeType"}],"Latitude":46.71822,"Longitude":-94.12741,"Name":"Beachside Restaurant ","Url":"https://www.onlyinyourstate.com/minnesota/beachside-restaurant-mn/"},{"Label":"13726 Katrine Dr, Deerwood, MN 56444, United States","Country":"USA","State":"MN","County":"Crow Wing","City":"Deerwood","Street":"Katrine Dr","HouseNumber":"13726","PostalCode":"56444","AdditionalData":[{"value":"United States","key":"CountryName"},{"value":"Minnesota","key":"StateName"},{"value":"Crow Wing","key":"CountyName"},{"value":"N","key":"PostalCodeType"}],"Latitude":46.35719,"Longitude":-93.86353,"Name":"Endless Walleye Restaurant ","Url":"https://www.onlyinyourstate.com/minnesota/endless-walleye-restaurant-mn/"},{"Label":"3756 S Grand Ave, Minneapolis, MN 55409, United States","Country":"USA","State":"MN","County":"Hennepin","City":"Minneapolis","District":"King Field","Street":"S Grand Ave","HouseNumber":"3756","PostalCode":"55409","AdditionalData":[{"value":"United States","key":"CountryName"},{"value":"Minnesota","key":"StateName"},{"value":"Hennepin","key":"CountyName"},{"value":"N","key":"PostalCodeType"}],"Latitude":44.93423,"Longitude":-93.28462,"Name":"Colorful Cafe Amazing Food ","Url":"https://www.onlyinyourstate.com/minnesota/colorful-cafe-amazing-food-mn/"},{"Label":"19134 US-71, Park Rapids, MN 56470, United States","Country":"USA","State":"MN","County":"Hubbard","City":"Park Rapids","Street":"US-71","HouseNumber":"19134","PostalCode":"56470","AdditionalData":[{"value":"United States","key":"CountryName"},{"value":"Minnesota","key":"StateName"},{"value":"Hubbard","key":"CountyName"},{"value":"N","key":"PostalCodeType"}],"Latitude":46.93939,"Longitude":-95.06672,"Name":"Middle Of Nowhere Steakhouse ","Url":"https://www.onlyinyourstate.com/minnesota/middle-of-nowhere-steakhouse-mn/"},{"Label":"160 Railway St W, Loretto, MN 55357, United States","Country":"USA","State":"MN","County":"Hennepin","City":"Loretto","Street":"Railway St W","HouseNumber":"160","PostalCode":"55357","AdditionalData":[{"value":"United States","key":"CountryName"},{"value":"Minnesota","key":"StateName"},{"value":"Hennepin","key":"CountyName"},{"value":"N","key":"PostalCodeType"}],"Latitude":45.05449,"Longitude":-93.63644,"Name":"One Of A Kind Restaurant ","Url":"https://www.onlyinyourstate.com/minnesota/one-of-a-kind-restaurant-mn/"},{"Label":"1004 3rd St S, Buffalo, MN 55313, United States","Country":"USA","State":"MN","County":"Wright","City":"Buffalo","Street":"3rd St S","HouseNumber":"1004","PostalCode":"55313","AdditionalData":[{"value":"United States","key":"CountryName"},{"value":"Minnesota","key":"StateName"},{"value":"Wright","key":"CountyName"},{"value":"N","key":"PostalCodeType"}],"Latitude":45.16823,"Longitude":-93.85724,"Name":"Antique Barn ","Url":"https://www.onlyinyourstate.com/minnesota/antique-barn-mn/"},{"Label":"8493 State Highway 371, Brainerd, MN 56401, United States","Country":"USA","State":"MN","County":"Crow Wing","City":"Brainerd","Street":"State Highway 371","HouseNumber":"8493","PostalCode":"56401","AdditionalData":[{"value":"United States","key":"CountryName"},{"value":"Minnesota","key":"StateName"},{"value":"Crow Wing","key":"CountyName"},{"value":"N","key":"PostalCodeType"}],"Latitude":46.27866,"Longitude":-94.30026,"Name":"Wildlife Park Day Trip ","Url":"https://www.onlyinyourstate.com/minnesota/wildlife-park-day-trip-mn/"},{"Label":"101 Judd St, Marine on St Croix, MN 55047, United States","Country":"USA","State":"MN","County":"Washington","City":"Marine on St Croix","Street":"Judd St","HouseNumber":"101","PostalCode":"55047","AdditionalData":[{"value":"United States","key":"CountryName"},{"value":"Minnesota","key":"StateName"},{"value":"Washington","key":"CountyName"},{"value":"N","key":"PostalCodeType"}],"Latitude":45.1988771,"Longitude":-92.7696161,"Name":"Middle Of Nowhere Store ","Url":"https://www.onlyinyourstate.com/minnesota/middle-of-nowhere-store-mn/"},{"Label":"500 Sinclair Lewis Ave, Sauk Centre, MN 56378, United States","Country":"USA","State":"MN","County":"Stearns","City":"Sauk Centre","Street":"Sinclair Lewis Ave","HouseNumber":"500","PostalCode":"56378","AdditionalData":[{"value":"United States","key":"CountryName"},{"value":"Minnesota","key":"StateName"},{"value":"Stearns","key":"CountyName"},{"value":"N","key":"PostalCodeType"}],"Latitude":45.73754,"Longitude":-94.95212,"Name":"Most Haunted Place In Nation ","Url":"https://www.onlyinyourstate.com/minnesota/most-haunted-place-in-nation-mn/"},{"Label":"7th Ave, JB Marks, 2531, South Africa","Country":"ZAF","State":"North West","County":"JB Marks","City":"JB Marks","District":"Mohadin","Street":"7th Ave","PostalCode":"2531","AdditionalData":[{"value":"South Africa","key":"CountryName"},{"value":"North West","key":"StateName"},{"value":"JB Marks","key":"CountyName"}],"Latitude":-26.72035,"Longitude":27.02931,"Name":"Oldest Bar In Minnesota ","Url":"https://www.onlyinyourstate.com/minnesota/oldest-bar-in-minnesota-mn/"},{"Label":"711 E West Towne Rd, Beaver Bay, MN 55614, United States","Country":"USA","State":"MN","County":"Lake","City":"Beaver Bay","Street":"E West Towne Rd","HouseNumber":"711","PostalCode":"55614","AdditionalData":[{"value":"United States","key":"CountryName"},{"value":"Minnesota","key":"StateName"},{"value":"Lake","key":"CountyName"},{"value":"N","key":"PostalCodeType"}],"Latitude":47.2581302,"Longitude":-91.3035579,"Name":"Scrumptious No Frills Restaurants ","Url":"https://www.onlyinyourstate.com/minnesota/scrumptious-no-frills-restaurants-mn/"},{"Label":"101 S Union St, Mora, MN 55051, United States","Country":"USA","State":"MN","County":"Kanabec","City":"Mora","Street":"S Union St","HouseNumber":"101","PostalCode":"55051","AdditionalData":[{"value":"United States","key":"CountryName"},{"value":"Minnesota","key":"StateName"},{"value":"Kanabec","key":"CountyName"},{"value":"N","key":"PostalCodeType"}],"Latitude":45.8764828,"Longitude":-93.2972402,"Name":"Middle Of Nowhere Bakery ","Url":"https://www.onlyinyourstate.com/minnesota/middle-of-nowhere-bakery-mn/"},{"Label":"8251 N Shore Trl N, Forest Lake, MN 55025, United States","Country":"USA","State":"MN","County":"Washington","City":"Forest Lake","Street":"N Shore Trl N","HouseNumber":"8251","PostalCode":"55025","AdditionalData":[{"value":"United States","key":"CountryName"},{"value":"Minnesota","key":"StateName"},{"value":"Washington","key":"CountyName"},{"value":"N","key":"PostalCodeType"}],"Latitude":45.2729875,"Longitude":-92.9387038,"Name":"Secluded Waterfront Restaurant ","Url":"https://www.onlyinyourstate.com/minnesota/secluded-waterfront-restaurant-mn/"},{"Label":"3458 Minnehaha Ave, Minneapolis, MN 55406, United States","Country":"USA","State":"MN","County":"Hennepin","City":"Minneapolis","District":"Howe","Street":"Minnehaha Ave","HouseNumber":"3458","PostalCode":"55406","AdditionalData":[{"value":"United States","key":"CountryName"},{"value":"Minnesota","key":"StateName"},{"value":"Hennepin","key":"CountyName"},{"value":"N","key":"PostalCodeType"}],"Latitude":44.93975,"Longitude":-93.22834,"Name":"Unique Thrift Store ","Url":"https://www.onlyinyourstate.com/minnesota/unique-thrift-store-mn/"},{"Label":"2917 Lyndale Ave S, Minneapolis, MN 55408, United States","Country":"USA","State":"MN","County":"Hennepin","City":"Minneapolis","District":"Whittier","Street":"Lyndale Ave S","HouseNumber":"2917","PostalCode":"55408","AdditionalData":[{"value":"United States","key":"CountryName"},{"value":"Minnesota","key":"StateName"},{"value":"Hennepin","key":"CountyName"},{"value":"N","key":"PostalCodeType"}],"Latitude":44.94965,"Longitude":-93.28766,"Name":"Superhero Themed Restaurant ","Url":"https://www.onlyinyourstate.com/minnesota/superhero-themed-restaurant-mn/"},{"Label":"1632 S Ferry Rd, Anoka, MN 55303, United States","Country":"USA","State":"MN","County":"Anoka","City":"Anoka","Street":"S Ferry Rd","HouseNumber":"1632","PostalCode":"55303","AdditionalData":[{"value":"United States","key":"CountryName"},{"value":"Minnesota","key":"StateName"},{"value":"Anoka","key":"CountyName"},{"value":"N","key":"PostalCodeType"}],"Latitude":45.19492,"Longitude":-93.39333,"Name":"Whimsical Tea Room ","Url":"https://www.onlyinyourstate.com/minnesota/whimsical-tea-room-mn/"},{"Label":"711 E West Towne Rd, Beaver Bay, MN 55614, United States","Country":"USA","State":"MN","County":"Lake","City":"Beaver Bay","Street":"E West Towne Rd","HouseNumber":"711","PostalCode":"55614","AdditionalData":[{"value":"United States","key":"CountryName"},{"value":"Minnesota","key":"StateName"},{"value":"Lake","key":"CountyName"},{"value":"N","key":"PostalCodeType"}],"Latitude":47.2581302,"Longitude":-91.3035579,"Name":"Unassuming Seafood Restaurant ","Url":"https://www.onlyinyourstate.com/minnesota/unassuming-seafood-restaurant-mn/"},{"Label":"Highway 47 NW, Cambridge, MN 55008, United States","Country":"USA","State":"MN","County":"Isanti","City":"Cambridge","Street":"Highway 47 NW","PostalCode":"55008","AdditionalData":[{"value":"United States","key":"CountryName"},{"value":"Minnesota","key":"StateName"},{"value":"Isanti","key":"CountyName"},{"value":"N","key":"PostalCodeType"}],"Latitude":45.59614,"Longitude":-93.38892,"Name":"Country Road Restaurant ","Url":"https://www.onlyinyourstate.com/minnesota/country-road-restaurant-mn/"},{"Label":"3753 Nicollet Ave, Minneapolis, MN 55409, United States","Country":"USA","State":"MN","County":"Hennepin","City":"Minneapolis","District":"King Field","Street":"Nicollet Ave","HouseNumber":"3753","PostalCode":"55409","AdditionalData":[{"value":"United States","key":"CountryName"},{"value":"Minnesota","key":"StateName"},{"value":"Hennepin","key":"CountyName"},{"value":"N","key":"PostalCodeType"}],"Latitude":44.93437,"Longitude":-93.27747,"Name":"Best Hot Dogs ","Url":"https://www.onlyinyourstate.com/minnesota/best-hot-dogs-mn/"},{"Label":"22820 Pillsbury Ave, Lakeville, MN 55044, United States","Country":"USA","State":"MN","County":"Scott","City":"Lakeville","Street":"Pillsbury Ave","HouseNumber":"22820","PostalCode":"55044","AdditionalData":[{"value":"United States","key":"CountryName"},{"value":"Minnesota","key":"StateName"},{"value":"Scott","key":"CountyName"},{"value":"N","key":"PostalCodeType"}],"Latitude":44.61877,"Longitude":-93.29326,"Name":"Antique Theme Park ","Url":"https://www.onlyinyourstate.com/minnesota/antique-theme-park-mn/"},{"Label":"3600 Snelling Ave N, Arden Hills, MN 55112, United States","Country":"USA","State":"MN","County":"Ramsey","City":"Arden Hills","Street":"Snelling Ave N","HouseNumber":"3600","PostalCode":"55112","AdditionalData":[{"value":"United States","key":"CountryName"},{"value":"Minnesota","key":"StateName"},{"value":"Ramsey","key":"CountyName"},{"value":"N","key":"PostalCodeType"}],"Latitude":45.05047,"Longitude":-93.16309,"Name":"Rustic Steakhouse ","Url":"https://www.onlyinyourstate.com/minnesota/rustic-steakhouse-mn/"},{"Label":"24 8th St S, Moorhead, MN 56560, United States","Country":"USA","State":"MN","County":"Clay","City":"Moorhead","Street":"8th St S","HouseNumber":"24","PostalCode":"56560","AdditionalData":[{"value":"United States","key":"CountryName"},{"value":"Minnesota","key":"StateName"},{"value":"Clay","key":"CountyName"},{"value":"N","key":"PostalCodeType"}],"Latitude":46.874,"Longitude":-96.76749,"Name":"Unique Dairy Queen ","Url":"https://www.onlyinyourstate.com/minnesota/unique-dairy-queen-mn/"},{"Label":"14401 Highway 7, Minnetonka, MN 55345, United States","Country":"USA","State":"MN","County":"Hennepin","City":"Minnetonka","Street":"Highway 7","HouseNumber":"14401","PostalCode":"55345","AdditionalData":[{"value":"United States","key":"CountryName"},{"value":"Minnesota","key":"StateName"},{"value":"Hennepin","key":"CountyName"},{"value":"N","key":"PostalCodeType"}],"Latitude":44.92157,"Longitude":-93.46345,"Name":"Restaurants That Are So Much More ","Url":"https://www.onlyinyourstate.com/minnesota/restaurants-that-are-so-much-more-mn/"},{"Label":"10 W Wisconsin St, Grand Marais, MN 55604, United States","Country":"USA","State":"MN","County":"Cook","City":"Grand Marais","Street":"W Wisconsin St","HouseNumber":"10","PostalCode":"55604","AdditionalData":[{"value":"United States","key":"CountryName"},{"value":"Minnesota","key":"StateName"},{"value":"Cook","key":"CountyName"},{"value":"N","key":"PostalCodeType"}],"Latitude":47.7491476,"Longitude":-90.3335513,"Name":"Legendary Family Owned Restaurants ","Url":"https://www.onlyinyourstate.com/minnesota/legendary-family-owned-restaurants-mn/"},{"Label":"38914 County Road 186, Sauk Centre, MN 56378, United States","Country":"USA","State":"MN","County":"Stearns","City":"Sauk Centre","Street":"County Road 186","HouseNumber":"38914","PostalCode":"56378","AdditionalData":[{"value":"United States","key":"CountryName"},{"value":"Minnesota","key":"StateName"},{"value":"Stearns","key":"CountyName"},{"value":"N","key":"PostalCodeType"}],"Latitude":45.69997,"Longitude":-94.91946,"Name":"Amazing Hidden Restaurants ","Url":"https://www.onlyinyourstate.com/minnesota/amazing-hidden-restaurants-mn/"},{"Label":"101 N Broadway, Gilbert, MN 55741, United States","Country":"USA","State":"MN","County":"St Louis","City":"Gilbert","Street":"N Broadway","HouseNumber":"101","PostalCode":"55741","AdditionalData":[{"value":"United States","key":"CountryName"},{"value":"Minnesota","key":"StateName"},{"value":"St Louis","key":"CountyName"},{"value":"N","key":"PostalCodeType"}],"Latitude":47.48807,"Longitude":-92.46523,"Name":"Unforgettable Themed Restaurant ","Url":"https://www.onlyinyourstate.com/minnesota/unforgettable-themed-restaurant-mn/"},{"Label":"451 US Highway 14 E, Balaton, MN 56115, United States","Country":"USA","State":"MN","County":"Lyon","City":"Balaton","Street":"US Highway 14 E","HouseNumber":"451","PostalCode":"56115","AdditionalData":[{"value":"United States","key":"CountryName"},{"value":"Minnesota","key":"StateName"},{"value":"Lyon","key":"CountyName"},{"value":"N","key":"PostalCodeType"}],"Latitude":44.2376,"Longitude":-95.86828,"Name":"Gas Station Restaurants ","Url":"https://www.onlyinyourstate.com/minnesota/gas-station-restaurants-mn/"},{"Label":"221 Bush St, Red Wing, MN 55066, United States","Country":"USA","State":"MN","County":"Goodhue","City":"Red Wing","Street":"Bush St","HouseNumber":"221","PostalCode":"55066","AdditionalData":[{"value":"United States","key":"CountryName"},{"value":"Minnesota","key":"StateName"},{"value":"Goodhue","key":"CountyName"},{"value":"N","key":"PostalCodeType"}],"Latitude":44.56557,"Longitude":-92.53417,"Name":"Old Restaurants ","Url":"https://www.onlyinyourstate.com/minnesota/old-restaurants-mn/"},{"Label":"34650 County Road 3, Crosslake, MN 56442, United States","Country":"USA","State":"MN","County":"Crow Wing","City":"Crosslake","Street":"County Road 3","HouseNumber":"34650","PostalCode":"56442","AdditionalData":[{"value":"United States","key":"CountryName"},{"value":"Minnesota","key":"StateName"},{"value":"Crow Wing","key":"CountyName"},{"value":"N","key":"PostalCodeType"}],"Latitude":46.65571,"Longitude":-94.11364,"Name":"Best Pasta ","Url":"https://www.onlyinyourstate.com/minnesota/best-pasta-mn/"},{"Label":"8433 239th St E, New Trier, MN 55031, United States","Country":"USA","State":"MN","County":"Dakota","City":"New Trier","Street":"239th St E","HouseNumber":"8433","PostalCode":"55031","AdditionalData":[{"value":"United States","key":"CountryName"},{"value":"Minnesota","key":"StateName"},{"value":"Dakota","key":"CountyName"},{"value":"N","key":"PostalCodeType"}],"Latitude":44.6037,"Longitude":-92.93564,"Name":"Little Known Church ","Url":"https://www.onlyinyourstate.com/minnesota/little-known-church-mn/"},{"Label":"1226 2nd St NE, Minneapolis, MN 55413, United States","Country":"USA","State":"MN","County":"Hennepin","City":"Minneapolis","District":"Sheridan","Street":"2nd St NE","HouseNumber":"1226","PostalCode":"55413","AdditionalData":[{"value":"United States","key":"CountryName"},{"value":"Minnesota","key":"StateName"},{"value":"Hennepin","key":"CountyName"},{"value":"N","key":"PostalCodeType"}],"Latitude":45.00074,"Longitude":-93.26641,"Name":"Bakery Mini Donuts ","Url":"https://www.onlyinyourstate.com/minnesota/bakery-mini-donuts-mn/"},{"Label":"Park St, Duluth, MN 55803, United States","Country":"USA","State":"MN","County":"St Louis","City":"Duluth","District":"Morley Heights / Parkview","Street":"Park St","PostalCode":"55803","AdditionalData":[{"value":"United States","key":"CountryName"},{"value":"Minnesota","key":"StateName"},{"value":"St Louis","key":"CountyName"},{"value":"N","key":"PostalCodeType"}],"Latitude":46.8377,"Longitude":-92.06109,"Name":"Winter Walk Lights ","Url":"https://www.onlyinyourstate.com/minnesota/winter-walk-lights-mn/"},{"Label":"7700 York Ave S, Edina, MN 55435, United States","Country":"USA","State":"MN","County":"Hennepin","City":"Edina","Street":"York Ave S","HouseNumber":"7700","PostalCode":"55435","AdditionalData":[{"value":"United States","key":"CountryName"},{"value":"Minnesota","key":"StateName"},{"value":"Hennepin","key":"CountyName"},{"value":"N","key":"PostalCodeType"}],"Latitude":44.86294,"Longitude":-93.3223,"Name":"Epic Indoor Playground ","Url":"https://www.onlyinyourstate.com/minnesota/epic-indoor-playground-mn/"},{"Label":"1625 County Highway 10, Spring Lake Park, MN 55432, United States","Country":"USA","State":"MN","County":"Anoka","City":"Spring Lake Park","Street":"County Highway 10","HouseNumber":"1625","PostalCode":"55432","AdditionalData":[{"value":"United States","key":"CountryName"},{"value":"Minnesota","key":"StateName"},{"value":"Anoka","key":"CountyName"},{"value":"N","key":"PostalCodeType"}],"Latitude":45.11821,"Longitude":-93.22957,"Name":"Soda Shop ","Url":"https://www.onlyinyourstate.com/minnesota/soda-shop-mn/"},{"Label":"20 Naniboujou Trl, Grand Marais, MN 55604, United States","Country":"USA","State":"MN","County":"Cook","City":"Grand Marais","Street":"Naniboujou Trl","HouseNumber":"20","PostalCode":"55604","AdditionalData":[{"value":"United States","key":"CountryName"},{"value":"Minnesota","key":"StateName"},{"value":"Cook","key":"CountyName"},{"value":"N","key":"PostalCodeType"}],"Latitude":47.81678,"Longitude":-90.04964,"Name":"Secluded Storybook Restaurant ","Url":"https://www.onlyinyourstate.com/minnesota/secluded-storybook-restaurant-mn/"},{"Label":"2726 43rd St W, Minneapolis, MN 55410, United States","Country":"USA","State":"MN","County":"Hennepin","City":"Minneapolis","District":"Linden Hills","Street":"43rd St W","HouseNumber":"2726","PostalCode":"55410","AdditionalData":[{"value":"United States","key":"CountryName"},{"value":"Minnesota","key":"StateName"},{"value":"Hennepin","key":"CountyName"},{"value":"N","key":"PostalCodeType"}],"Latitude":44.92467,"Longitude":-93.31407,"Name":"Famous Restaurants Wait ","Url":"https://www.onlyinyourstate.com/minnesota/famous-restaurants-wait-mn/"},{"Label":"3256 Cedar Rd, Orr, MN 55771, United States","Country":"USA","State":"MN","County":"St Louis","City":"Orr","Street":"Cedar Rd","HouseNumber":"3256","PostalCode":"55771","AdditionalData":[{"value":"United States","key":"CountryName"},{"value":"Minnesota","key":"StateName"},{"value":"St Louis","key":"CountyName"},{"value":"N","key":"PostalCodeType"}],"Latitude":47.95849,"Longitude":-92.53976,"Name":"Unbelievable Resorts ","Url":"https://www.onlyinyourstate.com/minnesota/unbelievable-resorts-mn/"},{"Label":"27160 County Road 2, Comfrey, MN 56019, United States","Country":"USA","State":"MN","County":"Brown","City":"Comfrey","Street":"County Road 2","HouseNumber":"27160","PostalCode":"56019","AdditionalData":[{"value":"United States","key":"CountryName"},{"value":"Minnesota","key":"StateName"},{"value":"Brown","key":"CountyName"},{"value":"N","key":"PostalCodeType"}],"Latitude":44.10984,"Longitude":-95.06024,"Name":"Spot Where History Left A Mark ","Url":"https://www.onlyinyourstate.com/minnesota/spot-where-history-left-a-mark-mn/"},{"Label":"Setor, Kumarganj, WB, India","Country":"IND","State":"WB","County":"Dakshin Dinajpur","City":"Kumarganj","District":"Setor","PostalCode":"733141","AdditionalData":[{"value":"India","key":"CountryName"},{"value":"West Bengal","key":"StateName"},{"value":"Dakshin Dinajpur","key":"CountyName"}],"Latitude":25.42234,"Longitude":88.80417,"Name":"Train Lovers Paradise ","Url":"https://www.onlyinyourstate.com/minnesota/train-lovers-paradise-mn/"},{"Label":"175 West Ave, Zumbrota, MN 55992, United States","Country":"USA","State":"MN","County":"Goodhue","City":"Zumbrota","Street":"West Ave","HouseNumber":"175","PostalCode":"55992","AdditionalData":[{"value":"United States","key":"CountryName"},{"value":"Minnesota","key":"StateName"},{"value":"Goodhue","key":"CountyName"},{"value":"N","key":"PostalCodeType"}],"Latitude":44.29548,"Longitude":-92.67,"Name":"Only Covered Bridge ","Url":"https://www.onlyinyourstate.com/minnesota/only-covered-bridge-mn/"},{"Label":"2110 Eagle Creek Ln, Woodbury, MN 55129, United States","Country":"USA","State":"MN","County":"Washington","City":"Woodbury","Street":"Eagle Creek Ln","HouseNumber":"2110","PostalCode":"55129","AdditionalData":[{"value":"United States","key":"CountryName"},{"value":"Minnesota","key":"StateName"},{"value":"Washington","key":"CountyName"},{"value":"N","key":"PostalCodeType"}],"Latitude":44.91845,"Longitude":-92.90195,"Name":"Salt Spa ","Url":"https://www.onlyinyourstate.com/minnesota/salt-spa-mn/"},{"Label":"3537 Zenith Ave S, Minneapolis, MN 55416, United States","Country":"USA","State":"MN","County":"Hennepin","City":"Minneapolis","District":"West Calhoun","Street":"Zenith Ave S","HouseNumber":"3537","PostalCode":"55416","AdditionalData":[{"value":"United States","key":"CountryName"},{"value":"Minnesota","key":"StateName"},{"value":"Hennepin","key":"CountyName"},{"value":"N","key":"PostalCodeType"}],"Latitude":44.9412474,"Longitude":-93.3212289,"Name":"Hidden Attractions ","Url":"https://www.onlyinyourstate.com/minnesota/hidden-attractions-mn/"},{"Label":"328 5th Ave N, Bayport, MN 55003, United States","Country":"USA","State":"MN","County":"Washington","City":"Bayport","Street":"5th Ave N","HouseNumber":"328","PostalCode":"55003","AdditionalData":[{"value":"United States","key":"CountryName"},{"value":"Minnesota","key":"StateName"},{"value":"Washington","key":"CountyName"},{"value":"N","key":"PostalCodeType"}],"Latitude":45.02183,"Longitude":-92.78168,"Name":"Small Town Bbq Restaurant ","Url":"https://www.onlyinyourstate.com/minnesota/small-town-bbq-restaurant-mn/"},{"Label":"2501 Marshall St NE, Minneapolis, MN 55418, United States","Country":"USA","State":"MN","County":"Hennepin","City":"Minneapolis","District":"Marshall Terrace","Street":"Marshall St NE","HouseNumber":"2501","PostalCode":"55418","AdditionalData":[{"value":"United States","key":"CountryName"},{"value":"Minnesota","key":"StateName"},{"value":"Hennepin","key":"CountyName"},{"value":"N","key":"PostalCodeType"}],"Latitude":45.01343,"Longitude":-93.27132,"Name":"Themed Restaurants ","Url":"https://www.onlyinyourstate.com/minnesota/themed-restaurants-mn/"},{"Label":"9393 MN-61, Grand Portage, MN 55605, United States","Country":"USA","State":"MN","County":"Cook","City":"Grand Portage","Street":"MN-61","HouseNumber":"9393","PostalCode":"55605","AdditionalData":[{"value":"United States","key":"CountryName"},{"value":"Minnesota","key":"StateName"},{"value":"Cook","key":"CountyName"},{"value":"N","key":"PostalCodeType"}],"Latitude":48.00108,"Longitude":-89.5864,"Name":"Stunning Coast Drive ","Url":"https://www.onlyinyourstate.com/minnesota/stunning-coast-drive-mn/"},{"Label":"345 County Road 30 SE, Montrose, MN 55363, United States","Country":"USA","State":"MN","County":"Wright","City":"Montrose","Street":"County Road 30 SE","HouseNumber":"345","PostalCode":"55363","AdditionalData":[{"value":"United States","key":"CountryName"},{"value":"Minnesota","key":"StateName"},{"value":"Wright","key":"CountyName"},{"value":"N","key":"PostalCodeType"}],"Latitude":45.02339,"Longitude":-93.87659,"Name":"Orchard Train Ride ","Url":"https://www.onlyinyourstate.com/minnesota/orchard-train-ride-mn/"},{"Label":"307 Canal Park Dr, Duluth, MN 55802, United States","Country":"USA","State":"MN","County":"St Louis","City":"Duluth","District":"Downtown Duluth","Street":"Canal Park Dr","HouseNumber":"307","PostalCode":"55802","AdditionalData":[{"value":"United States","key":"CountryName"},{"value":"Minnesota","key":"StateName"},{"value":"St Louis","key":"CountyName"},{"value":"N","key":"PostalCodeType"}],"Latitude":46.78418,"Longitude":-92.09521,"Name":"Mom And Pop Pizza Joints ","Url":"https://www.onlyinyourstate.com/minnesota/mom-and-pop-pizza-joints-mn/"},{"Label":"7965 Lost Lake Rd, Lake Shore, MN 56468, United States","Country":"USA","State":"MN","County":"Cass","City":"Lake Shore","Street":"Lost Lake Rd","HouseNumber":"7965","PostalCode":"56468","AdditionalData":[{"value":"United States","key":"CountryName"},{"value":"Minnesota","key":"StateName"},{"value":"Cass","key":"CountyName"},{"value":"N","key":"PostalCodeType"}],"Latitude":46.51536,"Longitude":-94.34065,"Name":"Hidden Restaurant Fall Colors ","Url":"https://www.onlyinyourstate.com/minnesota/hidden-restaurant-fall-colors-mn/"},{"Label":"6693 County Road 34 NW, Alexandria, MN 56308, United States","Country":"USA","State":"MN","County":"Douglas","City":"Alexandria","Street":"County Road 34 NW","HouseNumber":"6693","PostalCode":"56308","AdditionalData":[{"value":"United States","key":"CountryName"},{"value":"Minnesota","key":"StateName"},{"value":"Douglas","key":"CountyName"},{"value":"N","key":"PostalCodeType"}],"Latitude":45.96057,"Longitude":-95.3875,"Name":"Most Unique Festival ","Url":"https://www.onlyinyourstate.com/minnesota/most-unique-festival-mn/"},{"Label":"1100 Canterbury Rd S, Shakopee, MN 55379, United States","Country":"USA","State":"MN","County":"Scott","City":"Shakopee","Street":"Canterbury Rd S","HouseNumber":"1100","PostalCode":"55379","AdditionalData":[{"value":"United States","key":"CountryName"},{"value":"Minnesota","key":"StateName"},{"value":"Scott","key":"CountyName"},{"value":"N","key":"PostalCodeType"}],"Latitude":44.78721,"Longitude":-93.47357,"Name":"Harvest Festivals ","Url":"https://www.onlyinyourstate.com/minnesota/harvest-festivals-mn/"},{"Label":"155 South St, Taylors Falls, MN 55084, United States","Country":"USA","State":"MN","County":"Chisago","City":"Taylors Falls","Street":"South St","HouseNumber":"155","PostalCode":"55084","AdditionalData":[{"value":"United States","key":"CountryName"},{"value":"Minnesota","key":"StateName"},{"value":"Chisago","key":"CountyName"},{"value":"N","key":"PostalCodeType"}],"Latitude":45.40125,"Longitude":-92.6506,"Name":"Fall Day Trips ","Url":"https://www.onlyinyourstate.com/minnesota/fall-day-trips-mn/"},{"Label":"2225 Lonsdale Blvd E, Northfield, MN 55057, United States","Country":"USA","State":"MN","County":"Rice","City":"Northfield","Street":"Lonsdale Blvd E","HouseNumber":"2225","PostalCode":"55057","AdditionalData":[{"value":"United States","key":"CountryName"},{"value":"Minnesota","key":"StateName"},{"value":"Rice","key":"CountyName"},{"value":"N","key":"PostalCodeType"}],"Latitude":44.4712,"Longitude":-93.26114,"Name":"Charming Cider Mills ","Url":"https://www.onlyinyourstate.com/minnesota/charming-cider-mills-mn/"},{"Label":"6428 Manning Ave N, Stillwater, MN 55082, United States","Country":"USA","State":"MN","County":"Washington","City":"Stillwater","Street":"Manning Ave N","HouseNumber":"6428","PostalCode":"55082","AdditionalData":[{"value":"United States","key":"CountryName"},{"value":"Minnesota","key":"StateName"},{"value":"Washington","key":"CountyName"},{"value":"N","key":"PostalCodeType"}],"Latitude":45.04162,"Longitude":-92.86584,"Name":"Bakery Farm ","Url":"https://www.onlyinyourstate.com/minnesota/bakery-farm-mn/"},{"Label":"5691 US-2, Hermantown, MN 55810, United States","Country":"USA","State":"MN","County":"St Louis","City":"Hermantown","Street":"US-2","HouseNumber":"5691","PostalCode":"55810","AdditionalData":[{"value":"United States","key":"CountryName"},{"value":"Minnesota","key":"StateName"},{"value":"St Louis","key":"CountyName"},{"value":"N","key":"PostalCodeType"}],"Latitude":46.78278,"Longitude":-92.27911,"Name":"Roadside Restaurants ","Url":"https://www.onlyinyourstate.com/minnesota/roadside-restaurants-mn/"},{"Label":"8164 Interlachen Rd, Lake Shore, MN 56468, United States","Country":"USA","State":"MN","County":"Cass","City":"Lake Shore","Street":"Interlachen Rd","HouseNumber":"8164","PostalCode":"56468","AdditionalData":[{"value":"United States","key":"CountryName"},{"value":"Minnesota","key":"StateName"},{"value":"Cass","key":"CountyName"},{"value":"N","key":"PostalCodeType"}],"Latitude":46.50773,"Longitude":-94.3501,"Name":"Most Stunning Restaurant ","Url":"https://www.onlyinyourstate.com/minnesota/most-stunning-restaurant-mn/"},{"Label":"440 Mill St, Currie, MN 56123, United States","Country":"USA","State":"MN","County":"Murray","City":"Currie","Street":"Mill St","HouseNumber":"440","PostalCode":"56123","AdditionalData":[{"value":"United States","key":"CountryName"},{"value":"Minnesota","key":"StateName"},{"value":"Murray","key":"CountyName"},{"value":"N","key":"PostalCodeType"}],"Latitude":44.06788,"Longitude":-95.66583,"Name":"Train Themed Park ","Url":"https://www.onlyinyourstate.com/minnesota/train-themed-park-mn/"},{"Label":"99 E Oak St, Redwood Falls, MN 56283, United States","Country":"USA","State":"MN","County":"Redwood","City":"Redwood Falls","Street":"E Oak St","HouseNumber":"99","PostalCode":"56283","AdditionalData":[{"value":"United States","key":"CountryName"},{"value":"Minnesota","key":"StateName"},{"value":"Redwood","key":"CountyName"},{"value":"N","key":"PostalCodeType"}],"Latitude":44.55168,"Longitude":-95.12422,"Name":"Coolest Attractions ","Url":"https://www.onlyinyourstate.com/minnesota/coolest-attractions-mn/"},{"Label":"524 S Front St, Mankato, MN 56001, United States","Country":"USA","State":"MN","County":"Blue Earth","City":"Mankato","Street":"S Front St","HouseNumber":"524","PostalCode":"56001","AdditionalData":[{"value":"United States","key":"CountryName"},{"value":"Minnesota","key":"StateName"},{"value":"Blue Earth","key":"CountyName"},{"value":"N","key":"PostalCodeType"}],"Latitude":44.16327,"Longitude":-94.00727,"Name":"Hole In The Wall Pizza Place ","Url":"https://www.onlyinyourstate.com/minnesota/hole-in-the-wall-pizza-place-mn/"},{"Label":"MN-16, Spring Valley, MN 55975, United States","Country":"USA","State":"MN","County":"Fillmore","City":"Spring Valley","Street":"MN-16","PostalCode":"55975","AdditionalData":[{"value":"United States","key":"CountryName"},{"value":"Minnesota","key":"StateName"},{"value":"Fillmore","key":"CountyName"},{"value":"N","key":"PostalCodeType"}],"Latitude":43.69795,"Longitude":-92.39829,"Name":"Best Winery ","Url":"https://www.onlyinyourstate.com/minnesota/best-winery-mn/"},{"Label":"219 Moore St, Jackson, MN 56143, United States","Country":"USA","State":"MN","County":"Jackson","City":"Jackson","Street":"Moore St","HouseNumber":"219","PostalCode":"56143","AdditionalData":[{"value":"United States","key":"CountryName"},{"value":"Minnesota","key":"StateName"},{"value":"Jackson","key":"CountyName"},{"value":"N","key":"PostalCodeType"}],"Latitude":43.62949,"Longitude":-94.97916,"Name":"Train Themed Trip ","Url":"https://www.onlyinyourstate.com/minnesota/train-themed-trip-mn/"},{"Label":"10675 260th St E, Elko New Market, MN 55020, United States","Country":"USA","State":"MN","County":"Scott","City":"Elko New Market","Street":"260th St E","HouseNumber":"10675","PostalCode":"55020","AdditionalData":[{"value":"United States","key":"CountryName"},{"value":"Minnesota","key":"StateName"},{"value":"Scott","key":"CountyName"},{"value":"N","key":"PostalCodeType"}],"Latitude":44.57121,"Longitude":-93.30483,"Name":"Enormous Flea Market ","Url":"https://www.onlyinyourstate.com/minnesota/enormous-flea-market-mn/"},{"Label":"12541 Nett Lake Rd, Orr, MN 55771, United States","Country":"USA","State":"MN","County":"St Louis","City":"Orr","Street":"Nett Lake Rd","HouseNumber":"12541","PostalCode":"55771","AdditionalData":[{"value":"United States","key":"CountryName"},{"value":"Minnesota","key":"StateName"},{"value":"St Louis","key":"CountyName"},{"value":"N","key":"PostalCodeType"}],"Latitude":48.1029391,"Longitude":-93.0339963,"Name":"Black Bear Sanctuary ","Url":"https://www.onlyinyourstate.com/minnesota/black-bear-sanctuary-mn/"},{"Label":"112 N Main St, Stewartville, MN 55976, United States","Country":"USA","State":"MN","County":"Olmsted","City":"Stewartville","Street":"N Main St","HouseNumber":"112","PostalCode":"55976","AdditionalData":[{"value":"United States","key":"CountryName"},{"value":"Minnesota","key":"StateName"},{"value":"Olmsted","key":"CountyName"},{"value":"N","key":"PostalCodeType"}],"Latitude":43.85579,"Longitude":-92.48813,"Name":"Small Town Family Kitchens ","Url":"https://www.onlyinyourstate.com/minnesota/small-town-family-kitchens-mn/"},{"Label":"2399 University Ave E, Waterloo, ON N2K, Canada","Country":"CAN","State":"ON","County":"Waterloo","City":"Waterloo","Street":"University Ave E","HouseNumber":"2399","PostalCode":"N2K","AdditionalData":[{"value":"Canada","key":"CountryName"},{"value":"Ontario","key":"StateName"},{"value":"Waterloo","key":"CountyName"}],"Latitude":43.5175832,"Longitude":-80.5171988,"Name":"Unique Coffee Shops ","Url":"https://www.onlyinyourstate.com/minnesota/unique-coffee-shops-mn/"},{"Label":"11260 Hudson Blvd N, Lake Elmo, MN 55042, United States","Country":"USA","State":"MN","County":"Washington","City":"Lake Elmo","Street":"Hudson Blvd N","HouseNumber":"11260","PostalCode":"55042","AdditionalData":[{"value":"United States","key":"CountryName"},{"value":"Minnesota","key":"StateName"},{"value":"Washington","key":"CountyName"},{"value":"N","key":"PostalCodeType"}],"Latitude":44.95117,"Longitude":-92.87639,"Name":"Drive In Theater ","Url":"https://www.onlyinyourstate.com/minnesota/drive-in-theater-mn/"},{"Label":"324 S Main St, Stillwater, MN 55082, United States","Country":"USA","State":"MN","County":"Washington","City":"Stillwater","Street":"S Main St","HouseNumber":"324","PostalCode":"55082","AdditionalData":[{"value":"United States","key":"CountryName"},{"value":"Minnesota","key":"StateName"},{"value":"Washington","key":"CountyName"},{"value":"N","key":"PostalCodeType"}],"Latitude":45.05427,"Longitude":-92.80568,"Name":"Tropical Themed Restaurant ","Url":"https://www.onlyinyourstate.com/minnesota/tropical-themed-restaurant-mn/"},{"Label":"1 Walnut St, Whittlesea VIC 3757, Australia","Country":"AUS","State":"VIC","City":"Whittlesea","District":"Whittlesea","Street":"Walnut St","HouseNumber":"1","PostalCode":"3757","AdditionalData":[{"value":"Australia","key":"CountryName"},{"value":"Victoria","key":"StateName"}],"Latitude":-37.5121,"Longitude":145.11467,"Name":"Riverboat Cruise ","Url":"https://www.onlyinyourstate.com/minnesota/riverboat-cruise-mn/"},{"Label":"3501 Nicollet Ave, Minneapolis, MN 55408, United States","Country":"USA","State":"MN","County":"Hennepin","City":"Minneapolis","District":"Lyndale","Street":"Nicollet Ave","HouseNumber":"3501","PostalCode":"55408","AdditionalData":[{"value":"United States","key":"CountryName"},{"value":"Minnesota","key":"StateName"},{"value":"Hennepin","key":"CountyName"},{"value":"N","key":"PostalCodeType"}],"Latitude":44.93933,"Longitude":-93.27752,"Name":"Unique Desserts ","Url":"https://www.onlyinyourstate.com/minnesota/unique-desserts-mn/"},{"Label":"24 8th St S, Moorhead, MN 56560, United States","Country":"USA","State":"MN","County":"Clay","City":"Moorhead","Street":"8th St S","HouseNumber":"24","PostalCode":"56560","AdditionalData":[{"value":"United States","key":"CountryName"},{"value":"Minnesota","key":"StateName"},{"value":"Clay","key":"CountyName"},{"value":"N","key":"PostalCodeType"}],"Latitude":46.874,"Longitude":-96.76749,"Name":"Moorhead Dairy Queen ","Url":"https://www.onlyinyourstate.com/minnesota/moorhead-dairy-queen-mn/"},{"Label":"1001 3rd St NE, Roseau, MN 56751, United States","Country":"USA","State":"MN","County":"Roseau","City":"Roseau","Street":"3rd St NE","HouseNumber":"1001","PostalCode":"56751","AdditionalData":[{"value":"United States","key":"CountryName"},{"value":"Minnesota","key":"StateName"},{"value":"Roseau","key":"CountyName"},{"value":"N","key":"PostalCodeType"}],"Latitude":48.84816,"Longitude":-95.74866,"Name":"Hamburgers Nostalgic ","Url":"https://www.onlyinyourstate.com/minnesota/hamburgers-nostalgic-mn/"},{"Label":"512 1st St N, New Ulm, MN 56073, United States","Country":"USA","State":"MN","County":"Brown","City":"New Ulm","Street":"1st St N","HouseNumber":"512","PostalCode":"56073","AdditionalData":[{"value":"United States","key":"CountryName"},{"value":"Minnesota","key":"StateName"},{"value":"Brown","key":"CountyName"},{"value":"N","key":"PostalCodeType"}],"Latitude":44.31432,"Longitude":-94.46021,"Name":"Scrumptious Restaurants ","Url":"https://www.onlyinyourstate.com/minnesota/scrumptious-restaurants-mn/"},{"Label":"8105 N Long Lake Rd, Long Lake, MI 49685, United States","Country":"USA","State":"MI","County":"Grand Traverse","City":"Long Lake","Street":"N Long Lake Rd","HouseNumber":"8105","PostalCode":"49685","AdditionalData":[{"value":"United States","key":"CountryName"},{"value":"Michigan","key":"StateName"},{"value":"Grand Traverse","key":"CountyName"},{"value":"N","key":"PostalCodeType"}],"Latitude":44.745645,"Longitude":-85.7371734,"Name":"Outdoor Dining Restaurants ","Url":"https://www.onlyinyourstate.com/minnesota/outdoor-dining-restaurants-mn/"},{"Label":"5737 MN-70, Rock Creek, MN 55063, United States","Country":"USA","State":"MN","County":"Pine","City":"Rock Creek","Street":"MN-70","HouseNumber":"5737","PostalCode":"55063","AdditionalData":[{"value":"United States","key":"CountryName"},{"value":"Minnesota","key":"StateName"},{"value":"Pine","key":"CountyName"},{"value":"N","key":"PostalCodeType"}],"Latitude":45.76738,"Longitude":-92.99242,"Name":"Hole In The Wall Restaurant ","Url":"https://www.onlyinyourstate.com/minnesota/hole-in-the-wall-restaurant-mn/"},{"Label":"100 4th St W, St Walburg, SK S0M, Canada","Country":"CAN","State":"SK","County":"Saskatchewan","City":"St Walburg","Street":"4th St W","HouseNumber":"100","PostalCode":"S0M","AdditionalData":[{"value":"Canada","key":"CountryName"},{"value":"Saskatchewan","key":"StateName"},{"value":"Saskatchewan","key":"CountyName"}],"Latitude":53.6350308,"Longitude":-109.2096751,"Name":"Restaurant With Haunted History ","Url":"https://www.onlyinyourstate.com/minnesota/restaurant-with-haunted-history-mn/"},{"Label":"328 5th Ave N, Bayport, MN 55003, United States","Country":"USA","State":"MN","County":"Washington","City":"Bayport","Street":"5th Ave N","HouseNumber":"328","PostalCode":"55003","AdditionalData":[{"value":"United States","key":"CountryName"},{"value":"Minnesota","key":"StateName"},{"value":"Washington","key":"CountyName"},{"value":"N","key":"PostalCodeType"}],"Latitude":45.02183,"Longitude":-92.78168,"Name":"Bbq Restaurants ","Url":"https://www.onlyinyourstate.com/minnesota/bbq-restaurants-mn/"},{"Label":"517 Broadway St, Alexandria, MN 56308, United States","Country":"USA","State":"MN","County":"Douglas","City":"Alexandria","Street":"Broadway St","HouseNumber":"517","PostalCode":"56308","AdditionalData":[{"value":"United States","key":"CountryName"},{"value":"Minnesota","key":"StateName"},{"value":"Douglas","key":"CountyName"},{"value":"N","key":"PostalCodeType"}],"Latitude":45.88644,"Longitude":-95.37714,"Name":"Weekend Itinerary Antique Stores ","Url":"https://www.onlyinyourstate.com/minnesota/weekend-itinerary-antique-stores-mn/"},{"Label":"1690 15th St NE, Sunburg, MN 56289, United States","Country":"USA","State":"MN","County":"Swift","City":"Sunburg","Street":"15th St NE","HouseNumber":"1690","PostalCode":"56289","AdditionalData":[{"value":"United States","key":"CountryName"},{"value":"Minnesota","key":"StateName"},{"value":"Swift","key":"CountyName"},{"value":"N","key":"PostalCodeType"}],"Latitude":45.32003,"Longitude":-95.27688,"Name":"Underrated Lake ","Url":"https://www.onlyinyourstate.com/minnesota/underrated-lake-mn/"},{"Label":"5116 145th St NW, Royalton, MN 56373, United States","Country":"USA","State":"MN","County":"Benton","City":"Royalton","Street":"145th St NW","HouseNumber":"5116","PostalCode":"56373","AdditionalData":[{"value":"United States","key":"CountryName"},{"value":"Minnesota","key":"StateName"},{"value":"Benton","key":"CountyName"},{"value":"N","key":"PostalCodeType"}],"Latitude":45.77796,"Longitude":-94.27323,"Name":"Lazy Rivers ","Url":"https://www.onlyinyourstate.com/minnesota/lazy-rivers-mn/"},{"Label":"Grand Avenue, Abrol Nagar, Pathankot, PB, India","Country":"IND","State":"PB","County":"Pathankot","City":"Pathankot","District":"Abrol Nagar","Subdistrict":"Grand Avenue","PostalCode":"145001","AdditionalData":[{"value":"India","key":"CountryName"},{"value":"Punjab","key":"StateName"},{"value":"Pathankot","key":"CountyName"}],"Latitude":32.28117,"Longitude":75.6368,"Name":"Best Sandwich Restaurant ","Url":"https://www.onlyinyourstate.com/minnesota/best-sandwich-restaurant-mn/"},{"Label":"1625 County Highway 10, Spring Lake Park, MN 55432, United States","Country":"USA","State":"MN","County":"Anoka","City":"Spring Lake Park","Street":"County Highway 10","HouseNumber":"1625","PostalCode":"55432","AdditionalData":[{"value":"United States","key":"CountryName"},{"value":"Minnesota","key":"StateName"},{"value":"Anoka","key":"CountyName"},{"value":"N","key":"PostalCodeType"}],"Latitude":45.11821,"Longitude":-93.22957,"Name":"Factory Tours ","Url":"https://www.onlyinyourstate.com/minnesota/factory-tours-mn/"},{"Label":"451 E Broadway St, Winona, MN 55987, United States","Country":"USA","State":"MN","County":"Winona","City":"Winona","Street":"E Broadway St","HouseNumber":"451","PostalCode":"55987","AdditionalData":[{"value":"United States","key":"CountryName"},{"value":"Minnesota","key":"StateName"},{"value":"Winona","key":"CountyName"},{"value":"N","key":"PostalCodeType"}],"Latitude":44.04621,"Longitude":-91.62733,"Name":"Historic Bakery Donuts ","Url":"https://www.onlyinyourstate.com/minnesota/historic-bakery-donuts-mn/"},{"Label":"15195 Martin Dr, Eden Prairie, MN 55344, United States","Country":"USA","State":"MN","County":"Hennepin","City":"Eden Prairie","Street":"Martin Dr","HouseNumber":"15195","PostalCode":"55344","AdditionalData":[{"value":"United States","key":"CountryName"},{"value":"Minnesota","key":"StateName"},{"value":"Hennepin","key":"CountyName"},{"value":"N","key":"PostalCodeType"}],"Latitude":44.86339,"Longitude":-93.46927,"Name":"Unbelievable Thrift Store ","Url":"https://www.onlyinyourstate.com/minnesota/unbelievable-thrift-store-mn/"},{"Label":"7109 County Road 110 W, Minnetrista, MN 55364, United States","Country":"USA","State":"MN","County":"Hennepin","City":"Minnetrista","Street":"County Road 110 W","HouseNumber":"7109","PostalCode":"55364","AdditionalData":[{"value":"United States","key":"CountryName"},{"value":"Minnesota","key":"StateName"},{"value":"Hennepin","key":"CountyName"},{"value":"N","key":"PostalCodeType"}],"Latitude":44.9238759,"Longitude":-93.7026815,"Name":"Incredibly Unique Park ","Url":"https://www.onlyinyourstate.com/minnesota/incredibly-unique-park-mn/"},{"Label":"43821 Forest Blvd, Harris, MN 55032, United States","Country":"USA","State":"MN","County":"Chisago","City":"Harris","Street":"Forest Blvd","HouseNumber":"43821","PostalCode":"55032","AdditionalData":[{"value":"United States","key":"CountryName"},{"value":"Minnesota","key":"StateName"},{"value":"Chisago","key":"CountyName"},{"value":"N","key":"PostalCodeType"}],"Latitude":45.58488,"Longitude":-92.97475,"Name":"Kaffe Stuga ","Url":"https://www.onlyinyourstate.com/minnesota/kaffe-stuga-mn/"},{"Label":"14842 Sakatah Lake Rd, Waterville, MN 56096, United States","Country":"USA","State":"MN","County":"Le Sueur","City":"Waterville","Street":"Sakatah Lake Rd","HouseNumber":"14842","PostalCode":"56096","AdditionalData":[{"value":"United States","key":"CountryName"},{"value":"Minnesota","key":"StateName"},{"value":"Le Sueur","key":"CountyName"},{"value":"N","key":"PostalCodeType"}],"Latitude":44.22619,"Longitude":-93.56122,"Name":"Hidden Water Park ","Url":"https://www.onlyinyourstate.com/minnesota/hidden-water-park-mn/"},{"Label":"450 S Eliot Ave, Rush City, MN 55069, United States","Country":"USA","State":"MN","County":"Chisago","City":"Rush City","Street":"S Eliot Ave","HouseNumber":"450","PostalCode":"55069","AdditionalData":[{"value":"United States","key":"CountryName"},{"value":"Minnesota","key":"StateName"},{"value":"Chisago","key":"CountyName"},{"value":"N","key":"PostalCodeType"}],"Latitude":45.68431,"Longitude":-92.96591,"Name":"Best Small Bakery ","Url":"https://www.onlyinyourstate.com/minnesota/best-small-bakery-mn/"},{"Label":"900 Washington Ave, Detroit Lakes, MN 56501, United States","Country":"USA","State":"MN","County":"Becker","City":"Detroit Lakes","Street":"Washington Ave","HouseNumber":"900","PostalCode":"56501","AdditionalData":[{"value":"United States","key":"CountryName"},{"value":"Minnesota","key":"StateName"},{"value":"Becker","key":"CountyName"},{"value":"N","key":"PostalCodeType"}],"Latitude":46.81728,"Longitude":-95.84562,"Name":"Hometown Restaurants ","Url":"https://www.onlyinyourstate.com/minnesota/hometown-restaurants-mn/"},{"Label":"700 6th St SW, Chisholm, MN 55719, United States","Country":"USA","State":"MN","County":"St Louis","City":"Chisholm","Street":"6th St SW","HouseNumber":"700","PostalCode":"55719","AdditionalData":[{"value":"United States","key":"CountryName"},{"value":"Minnesota","key":"StateName"},{"value":"St Louis","key":"CountyName"},{"value":"N","key":"PostalCodeType"}],"Latitude":47.4842615,"Longitude":-92.8923481,"Name":"Seasonal Restaurants ","Url":"https://www.onlyinyourstate.com/minnesota/seasonal-restaurants-mn/"},{"Label":"Nicollet Ave & W 77th St, Minneapolis, MN 55423, United States","Country":"USA","State":"MN","County":"Hennepin","City":"Minneapolis","Street":"Nicollet Ave & W 77th St","PostalCode":"55423","AdditionalData":[{"value":"United States","key":"CountryName"},{"value":"Minnesota","key":"StateName"},{"value":"Hennepin","key":"CountyName"},{"value":"N","key":"PostalCodeType"}],"Latitude":44.8637,"Longitude":-93.27828,"Name":"Taco Trail ","Url":"https://www.onlyinyourstate.com/minnesota/taco-trail-mn/"},{"Label":"109 Parkway Ave S, Lanesboro, MN 55949, United States","Country":"USA","State":"MN","County":"Fillmore","City":"Lanesboro","Street":"Parkway Ave S","HouseNumber":"109","PostalCode":"55949","AdditionalData":[{"value":"United States","key":"CountryName"},{"value":"Minnesota","key":"StateName"},{"value":"Fillmore","key":"CountyName"},{"value":"N","key":"PostalCodeType"}],"Latitude":43.72049,"Longitude":-91.97751,"Name":"Lazy River ","Url":"https://www.onlyinyourstate.com/minnesota/lazy-river-mn/"},{"Label":"105 Parkway Ave N, Lanesboro, MN 55949, United States","Country":"USA","State":"MN","County":"Fillmore","City":"Lanesboro","Street":"Parkway Ave N","HouseNumber":"105","PostalCode":"55949","AdditionalData":[{"value":"United States","key":"CountryName"},{"value":"Minnesota","key":"StateName"},{"value":"Fillmore","key":"CountyName"},{"value":"N","key":"PostalCodeType"}],"Latitude":43.72119,"Longitude":-91.97755,"Name":"Bluff Country Restaurant ","Url":"https://www.onlyinyourstate.com/minnesota/bluff-country-restaurant-mn/"},{"Label":"1 Theodore Wirth Pkwy, Minneapolis, MN 55422, United States","Country":"USA","State":"MN","County":"Hennepin","City":"Minneapolis","Street":"Theodore Wirth Pkwy","HouseNumber":"1","PostalCode":"55422","AdditionalData":[{"value":"United States","key":"CountryName"},{"value":"Minnesota","key":"StateName"},{"value":"Hennepin","key":"CountyName"},{"value":"N","key":"PostalCodeType"}],"Latitude":44.9773681,"Longitude":-93.3263004,"Name":"Wildflower Trail ","Url":"https://www.onlyinyourstate.com/minnesota/wildflower-trail-mn/"},{"Label":"21378 1st St, Essig, MN 56030, United States","Country":"USA","State":"MN","County":"Brown","City":"Essig","Street":"1st St","HouseNumber":"21378","PostalCode":"56030","AdditionalData":[{"value":"United States","key":"CountryName"},{"value":"Minnesota","key":"StateName"},{"value":"Brown","key":"CountyName"},{"value":"P","key":"PostalCodeType"}],"Latitude":44.32395,"Longitude":-94.60489,"Name":"Mom And Pop Restaurant ","Url":"https://www.onlyinyourstate.com/minnesota/mom-and-pop-restaurant-mn/"},{"Label":"4452 40th St W, Webster, MN 55088, United States","Country":"USA","State":"MN","County":"Rice","City":"Webster","Street":"40th St W","HouseNumber":"4452","PostalCode":"55088","AdditionalData":[{"value":"United States","key":"CountryName"},{"value":"Minnesota","key":"StateName"},{"value":"Rice","key":"CountyName"},{"value":"N","key":"PostalCodeType"}],"Latitude":44.52949,"Longitude":-93.35143,"Name":"Supper Clubs ","Url":"https://www.onlyinyourstate.com/minnesota/supper-clubs-mn/"},{"Label":"408 MN-61, Grand Marais, MN 55604, United States","Country":"USA","State":"MN","County":"Cook","City":"Grand Marais","Street":"MN-61","HouseNumber":"408","PostalCode":"55604","AdditionalData":[{"value":"United States","key":"CountryName"},{"value":"Minnesota","key":"StateName"},{"value":"Cook","key":"CountyName"},{"value":"N","key":"PostalCodeType"}],"Latitude":47.7491751,"Longitude":-90.3393922,"Name":"Outdoor Patio Restaurants ","Url":"https://www.onlyinyourstate.com/minnesota/outdoor-patio-restaurants-mn/"},{"Label":"100 Parkway Ave N, Lanesboro, MN 55949, United States","Country":"USA","State":"MN","County":"Fillmore","City":"Lanesboro","Street":"Parkway Ave N","HouseNumber":"100","PostalCode":"55949","AdditionalData":[{"value":"United States","key":"CountryName"},{"value":"Minnesota","key":"StateName"},{"value":"Fillmore","key":"CountyName"},{"value":"N","key":"PostalCodeType"}],"Latitude":43.72119,"Longitude":-91.97684,"Name":"Ice Cream Trail ","Url":"https://www.onlyinyourstate.com/minnesota/ice-cream-trail-mn/"},{"Label":"61207 390th Ave, Zumbro Falls, MN 55991, United States","Country":"USA","State":"MN","County":"Wabasha","City":"Zumbro Falls","Street":"390th Ave","HouseNumber":"61207","PostalCode":"55991","AdditionalData":[{"value":"United States","key":"CountryName"},{"value":"Minnesota","key":"StateName"},{"value":"Wabasha","key":"CountyName"},{"value":"N","key":"PostalCodeType"}],"Latitude":44.2711851,"Longitude":-92.44084,"Name":"Beautiful Campground ","Url":"https://www.onlyinyourstate.com/minnesota/beautiful-campground-mn/"},{"Label":"20 Como St, Hokah, MN 55941, United States","Country":"USA","State":"MN","County":"Houston","City":"Hokah","Street":"Como St","HouseNumber":"20","PostalCode":"55941","AdditionalData":[{"value":"United States","key":"CountryName"},{"value":"Minnesota","key":"StateName"},{"value":"Houston","key":"CountyName"},{"value":"N","key":"PostalCodeType"}],"Latitude":43.7592426,"Longitude":-91.3400907,"Name":"Mn Spring Fed Po","Url":"https://www.onlyinyourstate.com/minnesota/mn-spring-fed-pool/"},{"Label":"1019 Washington Ave S, Bemidji, MN 56601, United States","Country":"USA","State":"MN","County":"Beltrami","City":"Bemidji","Street":"Washington Ave S","HouseNumber":"1019","PostalCode":"56601","AdditionalData":[{"value":"United States","key":"CountryName"},{"value":"Minnesota","key":"StateName"},{"value":"Beltrami","key":"CountyName"},{"value":"N","key":"PostalCodeType"}],"Latitude":47.45127,"Longitude":-94.86386,"Name":"Incredible Thrift Stores ","Url":"https://www.onlyinyourstate.com/minnesota/incredible-thrift-stores-mn/"},{"Label":"Harbor Dr, Duluth, MN 55802, United States","Country":"USA","State":"MN","County":"St Louis","City":"Duluth","District":"Downtown Duluth","Street":"Harbor Dr","PostalCode":"55802","AdditionalData":[{"value":"United States","key":"CountryName"},{"value":"Minnesota","key":"StateName"},{"value":"St Louis","key":"CountyName"},{"value":"N","key":"PostalCodeType"}],"Latitude":46.78065,"Longitude":-92.09729,"Name":"Duluth Balloon Festival ","Url":"https://www.onlyinyourstate.com/minnesota/duluth-balloon-festival-mn/"},{"Label":"515 Clay St, Mantorville, MN 55955, United States","Country":"USA","State":"MN","County":"Dodge","City":"Mantorville","Street":"Clay St","HouseNumber":"515","PostalCode":"55955","AdditionalData":[{"value":"United States","key":"CountryName"},{"value":"Minnesota","key":"StateName"},{"value":"Dodge","key":"CountyName"},{"value":"N","key":"PostalCodeType"}],"Latitude":44.0669266,"Longitude":-92.7568649,"Name":"Schoolhouse Cafe ","Url":"https://www.onlyinyourstate.com/minnesota/schoolhouse-cafe-mn/"},{"Label":"428 Stratford St W, Avon, MN 56310, United States","Country":"USA","State":"MN","County":"Stearns","City":"Avon","Street":"Stratford St W","HouseNumber":"428","PostalCode":"56310","AdditionalData":[{"value":"United States","key":"CountryName"},{"value":"Minnesota","key":"StateName"},{"value":"Stearns","key":"CountyName"},{"value":"N","key":"PostalCodeType"}],"Latitude":45.6110359,"Longitude":-94.4554059,"Name":"Timeless Restaurant ","Url":"https://www.onlyinyourstate.com/minnesota/timeless-restaurant-mn/"},{"Label":"43150 Blackhawk Rd, Harris, MN 55032, United States","Country":"USA","State":"MN","County":"Chisago","City":"Harris","Street":"Blackhawk Rd","HouseNumber":"43150","PostalCode":"55032","AdditionalData":[{"value":"United States","key":"CountryName"},{"value":"Minnesota","key":"StateName"},{"value":"Chisago","key":"CountyName"},{"value":"N","key":"PostalCodeType"}],"Latitude":45.57484,"Longitude":-93.07903,"Name":"Winery Day Trip ","Url":"https://www.onlyinyourstate.com/minnesota/winery-day-trip-mn/"},{"Label":"315 Jackson Ave, Phillips, WI 54555, United States","Country":"USA","State":"WI","County":"Price","City":"Phillips","Street":"Jackson Ave","HouseNumber":"315","PostalCode":"54555","AdditionalData":[{"value":"United States","key":"CountryName"},{"value":"Wisconsin","key":"StateName"},{"value":"Price","key":"CountyName"},{"value":"N","key":"PostalCodeType"}],"Latitude":45.6930765,"Longitude":-90.4040762,"Name":"Pizza Bucket List ","Url":"https://www.onlyinyourstate.com/minnesota/pizza-bucket-list-mn/"},{"Label":"13000 Zoo Blvd, Apple Valley, MN 55124, United States","Country":"USA","State":"MN","County":"Dakota","City":"Apple Valley","Street":"Zoo Blvd","HouseNumber":"13000","PostalCode":"55124","AdditionalData":[{"value":"United States","key":"CountryName"},{"value":"Minnesota","key":"StateName"},{"value":"Dakota","key":"CountyName"},{"value":"N","key":"PostalCodeType"}],"Latitude":44.76229,"Longitude":-93.19206,"Name":"Spring Outing ","Url":"https://www.onlyinyourstate.com/minnesota/spring-outing-mn/"},{"Label":"219 Moore St, Jackson, MN 56143, United States","Country":"USA","State":"MN","County":"Jackson","City":"Jackson","Street":"Moore St","HouseNumber":"219","PostalCode":"56143","AdditionalData":[{"value":"United States","key":"CountryName"},{"value":"Minnesota","key":"StateName"},{"value":"Jackson","key":"CountyName"},{"value":"N","key":"PostalCodeType"}],"Latitude":43.62949,"Longitude":-94.97916,"Name":"Most Unique Hotel ","Url":"https://www.onlyinyourstate.com/minnesota/most-unique-hotel-mn/"},{"Label":"394 Lake Ave, Kelowna, BC V1Y, Canada","Country":"CAN","State":"BC","County":"Central Okanagan","City":"Kelowna","District":"South Central","Street":"Lake Ave","HouseNumber":"394","PostalCode":"V1Y","AdditionalData":[{"value":"Canada","key":"CountryName"},{"value":"British Columbia","key":"StateName"},{"value":"Central Okanagan","key":"CountyName"}],"Latitude":49.8807253,"Longitude":-119.495172,"Name":"Wildly Famous Restaurants ","Url":"https://www.onlyinyourstate.com/minnesota/wildly-famous-restaurants-mn/"},{"Label":"9700 France Ave S, Bloomington, MN 55431, United States","Country":"USA","State":"MN","County":"Hennepin","City":"Bloomington","District":"West Bloomington","Street":"France Ave S","HouseNumber":"9700","PostalCode":"55431","AdditionalData":[{"value":"United States","key":"CountryName"},{"value":"Minnesota","key":"StateName"},{"value":"Hennepin","key":"CountyName"},{"value":"N","key":"PostalCodeType"}],"Latitude":44.83063,"Longitude":-93.33192,"Name":"Secret Garden ","Url":"https://www.onlyinyourstate.com/minnesota/secret-garden-mn/"},{"Label":"9500 Spirit Mountain Pl, Duluth, MN 55810, United States","Country":"USA","State":"MN","County":"St Louis","City":"Duluth","District":"Morgan Park/Smithville/Riverside","Street":"Spirit Mountain Pl","HouseNumber":"9500","PostalCode":"55810","AdditionalData":[{"value":"United States","key":"CountryName"},{"value":"Minnesota","key":"StateName"},{"value":"St Louis","key":"CountyName"},{"value":"N","key":"PostalCodeType"}],"Latitude":46.71823,"Longitude":-92.21608,"Name":"Mountain Coaster ","Url":"https://www.onlyinyourstate.com/minnesota/mountain-coaster-mn/"},{"Label":"2917 Lyndale Ave S, Minneapolis, MN 55408, United States","Country":"USA","State":"MN","County":"Hennepin","City":"Minneapolis","District":"Whittier","Street":"Lyndale Ave S","HouseNumber":"2917","PostalCode":"55408","AdditionalData":[{"value":"United States","key":"CountryName"},{"value":"Minnesota","key":"StateName"},{"value":"Hennepin","key":"CountyName"},{"value":"N","key":"PostalCodeType"}],"Latitude":44.94965,"Longitude":-93.28766,"Name":"Whimsical Restaurant ","Url":"https://www.onlyinyourstate.com/minnesota/whimsical-restaurant-mn/"},{"Label":"2773 Highway 61, Two Harbors, MN 55616, United States","Country":"USA","State":"MN","County":"Lake","City":"Two Harbors","Street":"Highway 61","HouseNumber":"2773","PostalCode":"55616","AdditionalData":[{"value":"United States","key":"CountryName"},{"value":"Minnesota","key":"StateName"},{"value":"Lake","key":"CountyName"},{"value":"N","key":"PostalCodeType"}],"Latitude":47.11843,"Longitude":-91.51025,"Name":"Mn Town Pie Capit","Url":"https://www.onlyinyourstate.com/minnesota/mn-town-pie-capital/"},{"Label":"300 Canal Park Dr, Duluth, MN 55802, United States","Country":"USA","State":"MN","County":"St Louis","City":"Duluth","District":"Downtown Duluth","Street":"Canal Park Dr","HouseNumber":"300","PostalCode":"55802","AdditionalData":[{"value":"United States","key":"CountryName"},{"value":"Minnesota","key":"StateName"},{"value":"St Louis","key":"CountyName"},{"value":"N","key":"PostalCodeType"}],"Latitude":46.78474,"Longitude":-92.0942,"Name":"Mn Burger Tra","Url":"https://www.onlyinyourstate.com/minnesota/mn-burger-trail/"},{"Label":"411 W Center St, Lake City, MN 55041, United States","Country":"USA","State":"MN","County":"Wabasha","City":"Lake City","Street":"W Center St","HouseNumber":"411","PostalCode":"55041","AdditionalData":[{"value":"United States","key":"CountryName"},{"value":"Minnesota","key":"StateName"},{"value":"Wabasha","key":"CountyName"},{"value":"N","key":"PostalCodeType"}],"Latitude":44.44586,"Longitude":-92.26869,"Name":"Little Known Inns ","Url":"https://www.onlyinyourstate.com/minnesota/little-known-inns-mn/"},{"Label":"609 S Front St, Mankato, MN 56001, United States","Country":"USA","State":"MN","County":"Blue Earth","City":"Mankato","Street":"S Front St","HouseNumber":"609","PostalCode":"56001","AdditionalData":[{"value":"United States","key":"CountryName"},{"value":"Minnesota","key":"StateName"},{"value":"Blue Earth","key":"CountyName"},{"value":"N","key":"PostalCodeType"}],"Latitude":44.16232,"Longitude":-94.00706,"Name":"Unsuspecting Restaurants ","Url":"https://www.onlyinyourstate.com/minnesota/unsuspecting-restaurants-mn/"},{"Label":"30200 Scenic Byway Rd, Henderson, MN 56044, United States","Country":"USA","State":"MN","County":"Sibley","City":"Henderson","Street":"Scenic Byway Rd","HouseNumber":"30200","PostalCode":"56044","AdditionalData":[{"value":"United States","key":"CountryName"},{"value":"Minnesota","key":"StateName"},{"value":"Sibley","key":"CountyName"},{"value":"N","key":"PostalCodeType"}],"Latitude":44.61461,"Longitude":-93.87042,"Name":"Adventure Park ","Url":"https://www.onlyinyourstate.com/minnesota/adventure-park-mn/"},{"Label":"4020 E Lake St, Minneapolis, MN 55406, United States","Country":"USA","State":"MN","County":"Hennepin","City":"Minneapolis","District":"Cooper","Street":"E Lake St","HouseNumber":"4020","PostalCode":"55406","AdditionalData":[{"value":"United States","key":"CountryName"},{"value":"Minnesota","key":"StateName"},{"value":"Hennepin","key":"CountyName"},{"value":"N","key":"PostalCodeType"}],"Latitude":44.94863,"Longitude":-93.21436,"Name":"Girl Scout Cookie Diner ","Url":"https://www.onlyinyourstate.com/minnesota/girl-scout-cookie-diner-mn/"},{"Label":"109 Parkway Ave S, Lanesboro, MN 55949, United States","Country":"USA","State":"MN","County":"Fillmore","City":"Lanesboro","Street":"Parkway Ave S","HouseNumber":"109","PostalCode":"55949","AdditionalData":[{"value":"United States","key":"CountryName"},{"value":"Minnesota","key":"StateName"},{"value":"Fillmore","key":"CountyName"},{"value":"N","key":"PostalCodeType"}],"Latitude":43.72049,"Longitude":-91.97751,"Name":"Secluded Restaurant ","Url":"https://www.onlyinyourstate.com/minnesota/secluded-restaurant-mn/"},{"Label":"1901 Glendale Rd, Hastings, MN 55033, United States","Country":"USA","State":"MN","County":"Dakota","City":"Hastings","Street":"Glendale Rd","HouseNumber":"1901","PostalCode":"55033","AdditionalData":[{"value":"United States","key":"CountryName"},{"value":"Minnesota","key":"StateName"},{"value":"Dakota","key":"CountyName"},{"value":"N","key":"PostalCodeType"}],"Latitude":44.72917,"Longitude":-92.82242,"Name":"Extreme Sandbox ","Url":"https://www.onlyinyourstate.com/minnesota/extreme-sandbox-mn/"},{"Label":"522 S Lake Ave, Duluth, MN 55802, United States","Country":"USA","State":"MN","County":"St Louis","City":"Duluth","District":"Downtown Duluth","Street":"S Lake Ave","HouseNumber":"522","PostalCode":"55802","AdditionalData":[{"value":"United States","key":"CountryName"},{"value":"Minnesota","key":"StateName"},{"value":"St Louis","key":"CountyName"},{"value":"N","key":"PostalCodeType"}],"Latitude":46.78014,"Longitude":-92.09332,"Name":"Irresistible Restaurants ","Url":"https://www.onlyinyourstate.com/minnesota/irresistible-restaurants-mn/"},{"Label":"1011 Saint Olaf Ave, Northfield, MN 55057, United States","Country":"USA","State":"MN","County":"Rice","City":"Northfield","Street":"Saint Olaf Ave","HouseNumber":"1011","PostalCode":"55057","AdditionalData":[{"value":"United States","key":"CountryName"},{"value":"Minnesota","key":"StateName"},{"value":"Rice","key":"CountyName"},{"value":"N","key":"PostalCodeType"}],"Latitude":44.46027,"Longitude":-93.17527,"Name":"Grocery Store Restaurant ","Url":"https://www.onlyinyourstate.com/minnesota/grocery-store-restaurant-mn/"},{"Label":"101 N Broadway, Gilbert, MN 55741, United States","Country":"USA","State":"MN","County":"St Louis","City":"Gilbert","Street":"N Broadway","HouseNumber":"101","PostalCode":"55741","AdditionalData":[{"value":"United States","key":"CountryName"},{"value":"Minnesota","key":"StateName"},{"value":"St Louis","key":"CountyName"},{"value":"N","key":"PostalCodeType"}],"Latitude":47.48807,"Longitude":-92.46523,"Name":"Whistling Bird Unique Restaurant ","Url":"https://www.onlyinyourstate.com/minnesota/whistling-bird-unique-restaurant-mn/"},{"Label":"31535 463rd Ave, Brooten, MN 56316, United States","Country":"USA","State":"MN","County":"Stearns","City":"Brooten","Street":"463rd Ave","HouseNumber":"31535","PostalCode":"56316","AdditionalData":[{"value":"United States","key":"CountryName"},{"value":"Minnesota","key":"StateName"},{"value":"Stearns","key":"CountyName"},{"value":"N","key":"PostalCodeType"}],"Latitude":45.58187,"Longitude":-95.07697,"Name":"Cheese Farm ","Url":"https://www.onlyinyourstate.com/minnesota/cheese-farm-mn/"},{"Label":"1608 Woodland Ave, Duluth, MN 55803, United States","Country":"USA","State":"MN","County":"St Louis","City":"Duluth","District":"Congdon Park","Street":"Woodland Ave","HouseNumber":"1608","PostalCode":"55803","AdditionalData":[{"value":"United States","key":"CountryName"},{"value":"Minnesota","key":"StateName"},{"value":"St Louis","key":"CountyName"},{"value":"N","key":"PostalCodeType"}],"Latitude":46.82159,"Longitude":-92.07388,"Name":"Best Minnesota Sandwiches ","Url":"https://www.onlyinyourstate.com/minnesota/best-minnesota-sandwiches-mn/"},{"Label":"2224 Mountain Shadow Dr, Duluth, MN 55811, United States","Country":"USA","State":"MN","County":"St Louis","City":"Duluth","District":"Duluth Heights","Street":"Mountain Shadow Dr","HouseNumber":"2224","PostalCode":"55811","AdditionalData":[{"value":"United States","key":"CountryName"},{"value":"Minnesota","key":"StateName"},{"value":"St Louis","key":"CountyName"},{"value":"N","key":"PostalCodeType"}],"Latitude":46.80561,"Longitude":-92.16482,"Name":"Mexican Restaurants ","Url":"https://www.onlyinyourstate.com/minnesota/mexican-restaurants-mn/"},{"Label":"261 5th St E, Ponteix, SK S0N, Canada","Country":"CAN","State":"SK","County":"Saskatchewan","City":"Ponteix","Street":"5th St E","HouseNumber":"261","PostalCode":"S0N","AdditionalData":[{"value":"Canada","key":"CountryName"},{"value":"Saskatchewan","key":"StateName"},{"value":"Saskatchewan","key":"CountyName"}],"Latitude":49.7425846,"Longitude":-107.484656,"Name":"Best Bloody Mary ","Url":"https://www.onlyinyourstate.com/minnesota/best-bloody-mary-mn/"},{"Label":"2501 Marshall St NE, Minneapolis, MN 55418, United States","Country":"USA","State":"MN","County":"Hennepin","City":"Minneapolis","District":"Marshall Terrace","Street":"Marshall St NE","HouseNumber":"2501","PostalCode":"55418","AdditionalData":[{"value":"United States","key":"CountryName"},{"value":"Minnesota","key":"StateName"},{"value":"Hennepin","key":"CountyName"},{"value":"N","key":"PostalCodeType"}],"Latitude":45.01343,"Longitude":-93.27132,"Name":"Best Places To Eat 2017 ","Url":"https://www.onlyinyourstate.com/minnesota/best-places-to-eat-2017-mn/"},{"Label":"1207 N Main St, Austin, MN 55912, United States","Country":"USA","State":"MN","County":"Mower","City":"Austin","Street":"N Main St","HouseNumber":"1207","PostalCode":"55912","AdditionalData":[{"value":"United States","key":"CountryName"},{"value":"Minnesota","key":"StateName"},{"value":"Mower","key":"CountyName"},{"value":"N","key":"PostalCodeType"}],"Latitude":43.67683,"Longitude":-92.97477,"Name":"Minnesota Nice Restaurants ","Url":"https://www.onlyinyourstate.com/minnesota/minnesota-nice-restaurants-mn/"},{"Label":"Hastings St NE, Cambridge, MN 55008, United States","Country":"USA","State":"MN","County":"Isanti","City":"Cambridge","Street":"Hastings St NE","PostalCode":"55008","AdditionalData":[{"value":"United States","key":"CountryName"},{"value":"Minnesota","key":"StateName"},{"value":"Isanti","key":"CountyName"},{"value":"N","key":"PostalCodeType"}],"Latitude":45.60401,"Longitude":-93.22458,"Name":"Winter Horseback Riding Trail ","Url":"https://www.onlyinyourstate.com/minnesota/winter-horseback-riding-trail-mn/"},{"Label":"160 Railway St W, Loretto, MN 55357, United States","Country":"USA","State":"MN","County":"Hennepin","City":"Loretto","Street":"Railway St W","HouseNumber":"160","PostalCode":"55357","AdditionalData":[{"value":"United States","key":"CountryName"},{"value":"Minnesota","key":"StateName"},{"value":"Hennepin","key":"CountyName"},{"value":"N","key":"PostalCodeType"}],"Latitude":45.05449,"Longitude":-93.63644,"Name":"Train Restaurant ","Url":"https://www.onlyinyourstate.com/minnesota/train-restaurant-mn/"},{"Label":"2324 S Lyndale Ave, Minneapolis, MN 55405, United States","Country":"USA","State":"MN","County":"Hennepin","City":"Minneapolis","District":"Lowry Hill East","Street":"S Lyndale Ave","HouseNumber":"2324","PostalCode":"55405","AdditionalData":[{"value":"United States","key":"CountryName"},{"value":"Minnesota","key":"StateName"},{"value":"Hennepin","key":"CountyName"},{"value":"N","key":"PostalCodeType"}],"Latitude":44.95926,"Longitude":-93.28844,"Name":"Best Pizza Places ","Url":"https://www.onlyinyourstate.com/minnesota/best-pizza-places-mn/"},{"Label":"731 Hennepin Ave, Minneapolis, MN 55403, United States","Country":"USA","State":"MN","County":"Hennepin","City":"Minneapolis","District":"Downtown West","Street":"Hennepin Ave","HouseNumber":"731","PostalCode":"55403","AdditionalData":[{"value":"United States","key":"CountryName"},{"value":"Minnesota","key":"StateName"},{"value":"Hennepin","key":"CountyName"},{"value":"N","key":"PostalCodeType"}],"Latitude":44.97707,"Longitude":-93.27541,"Name":"Winter Rooftop Patio ","Url":"https://www.onlyinyourstate.com/minnesota/winter-rooftop-patio-mn/"},{"Label":"16180 Flying Cloud Dr, Eden Prairie, MN 55347, United States","Country":"USA","State":"MN","County":"Hennepin","City":"Eden Prairie","Street":"Flying Cloud Dr","HouseNumber":"16180","PostalCode":"55347","AdditionalData":[{"value":"United States","key":"CountryName"},{"value":"Minnesota","key":"StateName"},{"value":"Hennepin","key":"CountyName"},{"value":"N","key":"PostalCodeType"}],"Latitude":44.8185,"Longitude":-93.48271,"Name":"Under The Radar Restaurants ","Url":"https://www.onlyinyourstate.com/minnesota/under-the-radar-restaurants-mn/"},{"Label":"413 SE 14th Ave, Minneapolis, MN 55414, United States","Country":"USA","State":"MN","County":"Hennepin","City":"Minneapolis","District":"Marcy-Holmes","Street":"SE 14th Ave","HouseNumber":"413","PostalCode":"55414","AdditionalData":[{"value":"United States","key":"CountryName"},{"value":"Minnesota","key":"StateName"},{"value":"Hennepin","key":"CountyName"},{"value":"N","key":"PostalCodeType"}],"Latitude":44.98101,"Longitude":-93.23565,"Name":"Tiny Restaurants ","Url":"https://www.onlyinyourstate.com/minnesota/tiny-restaurants-mn/"},{"Label":"75 Fifth St, Port Pirie West SA 5540, Australia","Country":"AUS","State":"SA","City":"Port Pirie","District":"Port Pirie West","Street":"Fifth St","HouseNumber":"75","PostalCode":"5540","AdditionalData":[{"value":"Australia","key":"CountryName"},{"value":"South Australia","key":"StateName"}],"Latitude":-33.18313,"Longitude":138.00058,"Name":"North Pole Places ","Url":"https://www.onlyinyourstate.com/minnesota/north-pole-places-mn/"},{"Label":"37200 Wild Mountain Rd, Taylors Falls, MN 55084, United States","Country":"USA","State":"MN","County":"Chisago","City":"Taylors Falls","Street":"Wild Mountain Rd","HouseNumber":"37200","PostalCode":"55084","AdditionalData":[{"value":"United States","key":"CountryName"},{"value":"Minnesota","key":"StateName"},{"value":"Chisago","key":"CountyName"},{"value":"N","key":"PostalCodeType"}],"Latitude":45.48883,"Longitude":-92.70504,"Name":"Amazing Winter Park ","Url":"https://www.onlyinyourstate.com/minnesota/amazing-winter-park-mn/"},{"Label":"2124 Marshall St NE, Minneapolis, MN 55418, United States","Country":"USA","State":"MN","County":"Hennepin","City":"Minneapolis","District":"Bottineau","Street":"Marshall St NE","HouseNumber":"2124","PostalCode":"55418","AdditionalData":[{"value":"United States","key":"CountryName"},{"value":"Minnesota","key":"StateName"},{"value":"Hennepin","key":"CountyName"},{"value":"N","key":"PostalCodeType"}],"Latitude":45.00955,"Longitude":-93.27237,"Name":"Comfort Food Restaurants ","Url":"https://www.onlyinyourstate.com/minnesota/comfort-food-restaurants-mn/"},{"Label":"1382 Willow St, Minneapolis, MN 55403, United States","Country":"USA","State":"MN","County":"Hennepin","City":"Minneapolis","District":"Loring Park","Street":"Willow St","HouseNumber":"1382","PostalCode":"55403","AdditionalData":[{"value":"United States","key":"CountryName"},{"value":"Minnesota","key":"StateName"},{"value":"Hennepin","key":"CountyName"},{"value":"N","key":"PostalCodeType"}],"Latitude":44.9691156,"Longitude":-93.2819949,"Name":"Mn Magical Holiday Traditi","Url":"https://www.onlyinyourstate.com/minnesota/mn-magical-holiday-tradition/"},{"Label":"19180 281st Ave, Grey Eagle, MN 56336, United States","Country":"USA","State":"MN","County":"Todd","City":"Grey Eagle","Street":"281st Ave","HouseNumber":"19180","PostalCode":"56336","AdditionalData":[{"value":"United States","key":"CountryName"},{"value":"Minnesota","key":"StateName"},{"value":"Todd","key":"CountyName"},{"value":"N","key":"PostalCodeType"}],"Latitude":45.90607,"Longitude":-94.7841,"Name":"Christmas Tree Farms ","Url":"https://www.onlyinyourstate.com/minnesota/christmas-tree-farms-mn/"},{"Label":"17696 Prothero Dr NW, Angle Inlet, MN 56711, United States","Country":"USA","State":"MN","County":"Lake of the Woods","City":"Angle Inlet","Street":"Prothero Dr NW","HouseNumber":"17696","PostalCode":"56711","AdditionalData":[{"value":"United States","key":"CountryName"},{"value":"Minnesota","key":"StateName"},{"value":"Lake of the Woods","key":"CountyName"},{"value":"P","key":"PostalCodeType"}],"Latitude":49.35717,"Longitude":-95.08463,"Name":"Hidden Resort ","Url":"https://www.onlyinyourstate.com/minnesota/hidden-resort-mn/"},{"Label":"1 Lighthouse Point Rd, Two Harbors, MN 55616, United States","Country":"USA","State":"MN","County":"Lake","City":"Two Harbors","Street":"Lighthouse Point Rd","HouseNumber":"1","PostalCode":"55616","AdditionalData":[{"value":"United States","key":"CountryName"},{"value":"Minnesota","key":"StateName"},{"value":"Lake","key":"CountyName"},{"value":"N","key":"PostalCodeType"}],"Latitude":47.0144985,"Longitude":-91.6636894,"Name":"Lighthouse Bed And Breakfast ","Url":"https://www.onlyinyourstate.com/minnesota/lighthouse-bed-and-breakfast-mn/"},{"Label":"2501 Marshall St NE, Minneapolis, MN 55418, United States","Country":"USA","State":"MN","County":"Hennepin","City":"Minneapolis","District":"Marshall Terrace","Street":"Marshall St NE","HouseNumber":"2501","PostalCode":"55418","AdditionalData":[{"value":"United States","key":"CountryName"},{"value":"Minnesota","key":"StateName"},{"value":"Hennepin","key":"CountyName"},{"value":"N","key":"PostalCodeType"}],"Latitude":45.01343,"Longitude":-93.27132,"Name":"Quirkiest Restaurant ","Url":"https://www.onlyinyourstate.com/minnesota/quirkiest-restaurant-mn/"},{"Label":"900 Mound Ave, Mankato, MN 56001, United States","Country":"USA","State":"MN","County":"Blue Earth","City":"Mankato","Street":"Mound Ave","HouseNumber":"900","PostalCode":"56001","AdditionalData":[{"value":"United States","key":"CountryName"},{"value":"Minnesota","key":"StateName"},{"value":"Blue Earth","key":"CountyName"},{"value":"N","key":"PostalCodeType"}],"Latitude":44.15926,"Longitude":-94.03315,"Name":"Mn Christmas Lights Road Tr","Url":"https://www.onlyinyourstate.com/minnesota/mn-christmas-lights-road-trip/"},{"Label":"725 Vineland Pl, Minneapolis, MN 55403, United States","Country":"USA","State":"MN","County":"Hennepin","City":"Minneapolis","District":"Lowry Hill","Street":"Vineland Pl","HouseNumber":"725","PostalCode":"55403","AdditionalData":[{"value":"United States","key":"CountryName"},{"value":"Minnesota","key":"StateName"},{"value":"Hennepin","key":"CountyName"},{"value":"N","key":"PostalCodeType"}],"Latitude":44.96852,"Longitude":-93.28856,"Name":"Free Things To Do ","Url":"https://www.onlyinyourstate.com/minnesota/free-things-to-do-mn/"},{"Label":"63604 170th Ave, Kellogg, MN 55945, United States","Country":"USA","State":"MN","County":"Wabasha","City":"Kellogg","Street":"170th Ave","HouseNumber":"63604","PostalCode":"55945","AdditionalData":[{"value":"United States","key":"CountryName"},{"value":"Minnesota","key":"StateName"},{"value":"Wabasha","key":"CountyName"},{"value":"N","key":"PostalCodeType"}],"Latitude":44.30197,"Longitude":-92.00394,"Name":"Massive Toy Store ","Url":"https://www.onlyinyourstate.com/minnesota/massive-toy-store-mn/"},{"Label":"600 E Superior St, Duluth, MN 55802, United States","Country":"USA","State":"MN","County":"St Louis","City":"Duluth","District":"East Hillside","Street":"E Superior St","HouseNumber":"600","PostalCode":"55802","AdditionalData":[{"value":"United States","key":"CountryName"},{"value":"Minnesota","key":"StateName"},{"value":"St Louis","key":"CountyName"},{"value":"N","key":"PostalCodeType"}],"Latitude":46.79224,"Longitude":-92.09073,"Name":"Polar Express Train Ride ","Url":"https://www.onlyinyourstate.com/minnesota/polar-express-train-ride-mn/"},{"Label":"Minnetrista, MN, United States","Country":"USA","State":"MN","County":"Hennepin","City":"Minnetrista","PostalCode":"55364","AdditionalData":[{"value":"United States","key":"CountryName"},{"value":"Minnesota","key":"StateName"},{"value":"Hennepin","key":"CountyName"},{"value":"N","key":"PostalCodeType"}],"Latitude":44.92442,"Longitude":-93.71016,"Name":"Mn Best Christmas Lights 20","Url":"https://www.onlyinyourstate.com/minnesota/mn-best-christmas-lights-2016/"},{"Label":"700 W Railroad St, Duluth, MN 55802, United States","Country":"USA","State":"MN","County":"St Louis","City":"Duluth","District":"Downtown Duluth","Street":"W Railroad St","HouseNumber":"700","PostalCode":"55802","AdditionalData":[{"value":"United States","key":"CountryName"},{"value":"Minnesota","key":"StateName"},{"value":"St Louis","key":"CountyName"},{"value":"N","key":"PostalCodeType"}],"Latitude":46.7788,"Longitude":-92.10218,"Name":"Most Magical Places ","Url":"https://www.onlyinyourstate.com/minnesota/most-magical-places-mn/"},{"Label":"393 Selby Ave, Ottawa, ON K2A, Canada","Country":"CAN","State":"ON","County":"Ottawa","City":"Ottawa","District":"Westboro","Street":"Selby Ave","HouseNumber":"393","PostalCode":"K2A","AdditionalData":[{"value":"Canada","key":"CountryName"},{"value":"Ontario","key":"StateName"},{"value":"Ottawa","key":"CountyName"}],"Latitude":45.398108,"Longitude":-75.7595842,"Name":"French Fry Restaurants ","Url":"https://www.onlyinyourstate.com/minnesota/french-fry-restaurants-mn/"},{"Label":"525 Leaf St, Orono, MN 55356, United States","Country":"USA","State":"MN","County":"Hennepin","City":"Orono","Street":"Leaf St","HouseNumber":"525","PostalCode":"55356","AdditionalData":[{"value":"United States","key":"CountryName"},{"value":"Minnesota","key":"StateName"},{"value":"Hennepin","key":"CountyName"},{"value":"N","key":"PostalCodeType"}],"Latitude":44.96921,"Longitude":-93.60498,"Name":"Chapel Unforgettable Setting ","Url":"https://www.onlyinyourstate.com/minnesota/chapel-unforgettable-setting-mn/"},{"Label":"221 Bush St, Red Wing, MN 55066, United States","Country":"USA","State":"MN","County":"Goodhue","City":"Red Wing","Street":"Bush St","HouseNumber":"221","PostalCode":"55066","AdditionalData":[{"value":"United States","key":"CountryName"},{"value":"Minnesota","key":"StateName"},{"value":"Goodhue","key":"CountyName"},{"value":"N","key":"PostalCodeType"}],"Latitude":44.56557,"Longitude":-92.53417,"Name":"Restaurants With History ","Url":"https://www.onlyinyourstate.com/minnesota/restaurants-with-history-mn/"},{"Label":"101 Judd St, Marine on St Croix, MN 55047, United States","Country":"USA","State":"MN","County":"Washington","City":"Marine on St Croix","Street":"Judd St","HouseNumber":"101","PostalCode":"55047","AdditionalData":[{"value":"United States","key":"CountryName"},{"value":"Minnesota","key":"StateName"},{"value":"Washington","key":"CountyName"},{"value":"N","key":"PostalCodeType"}],"Latitude":45.1988771,"Longitude":-92.7696161,"Name":"Oldest General Store ","Url":"https://www.onlyinyourstate.com/minnesota/oldest-general-store-mn/"},{"Label":"101 N Broadway, Gilbert, MN 55741, United States","Country":"USA","State":"MN","County":"St Louis","City":"Gilbert","Street":"N Broadway","HouseNumber":"101","PostalCode":"55741","AdditionalData":[{"value":"United States","key":"CountryName"},{"value":"Minnesota","key":"StateName"},{"value":"St Louis","key":"CountyName"},{"value":"N","key":"PostalCodeType"}],"Latitude":47.48807,"Longitude":-92.46523,"Name":"Little Known Restaurants ","Url":"https://www.onlyinyourstate.com/minnesota/little-known-restaurants-mn/"},{"Label":"905 W 4th St, Rush City, MN 55069, United States","Country":"USA","State":"MN","County":"Chisago","City":"Rush City","Street":"W 4th St","HouseNumber":"905","PostalCode":"55069","AdditionalData":[{"value":"United States","key":"CountryName"},{"value":"Minnesota","key":"StateName"},{"value":"Chisago","key":"CountyName"},{"value":"N","key":"PostalCodeType"}],"Latitude":45.6846727,"Longitude":-92.9762751,"Name":"Flea Markets ","Url":"https://www.onlyinyourstate.com/minnesota/flea-markets-mn/"},{"Label":"203 W Lincoln Ave, Fergus Falls, MN 56537, United States","Country":"USA","State":"MN","County":"Otter Tail","City":"Fergus Falls","Street":"W Lincoln Ave","HouseNumber":"203","PostalCode":"56537","AdditionalData":[{"value":"United States","key":"CountryName"},{"value":"Minnesota","key":"StateName"},{"value":"Otter Tail","key":"CountyName"},{"value":"N","key":"PostalCodeType"}],"Latitude":46.28319,"Longitude":-96.07631,"Name":"Neighborhood Restaurants ","Url":"https://www.onlyinyourstate.com/minnesota/neighborhood-restaurants-mn/"},{"Label":"2501 Marshall St NE, Minneapolis, MN 55418, United States","Country":"USA","State":"MN","County":"Hennepin","City":"Minneapolis","District":"Marshall Terrace","Street":"Marshall St NE","HouseNumber":"2501","PostalCode":"55418","AdditionalData":[{"value":"United States","key":"CountryName"},{"value":"Minnesota","key":"StateName"},{"value":"Hennepin","key":"CountyName"},{"value":"N","key":"PostalCodeType"}],"Latitude":45.01343,"Longitude":-93.27132,"Name":"Unique Restaurants ","Url":"https://www.onlyinyourstate.com/minnesota/unique-restaurants-mn/"},{"Label":"201 Main St, Minneapolis, KS 67467, United States","Country":"USA","State":"KS","County":"Ottawa","City":"Minneapolis","Street":"Main St","HouseNumber":"201","PostalCode":"67467","AdditionalData":[{"value":"United States","key":"CountryName"},{"value":"Kansas","key":"StateName"},{"value":"Ottawa","key":"CountyName"},{"value":"N","key":"PostalCodeType"}],"Latitude":39.1506703,"Longitude":-97.8890615,"Name":"River Restaurants ","Url":"https://www.onlyinyourstate.com/minnesota/river-restaurants-mn/"},{"Label":"1202 E Howard St, Hibbing, MN 55746, United States","Country":"USA","State":"MN","County":"St Louis","City":"Hibbing","Street":"E Howard St","HouseNumber":"1202","PostalCode":"55746","AdditionalData":[{"value":"United States","key":"CountryName"},{"value":"Minnesota","key":"StateName"},{"value":"St Louis","key":"CountyName"},{"value":"N","key":"PostalCodeType"}],"Latitude":47.42675,"Longitude":-92.92659,"Name":"Grand Canyon ","Url":"https://www.onlyinyourstate.com/minnesota/grand-canyon-mn/"},{"Label":"15788 Kelly Farm Rd NW, Elk River, MN 55330, United States","Country":"USA","State":"MN","County":"Sherburne","City":"Elk River","Street":"Kelly Farm Rd NW","HouseNumber":"15788","PostalCode":"55330","AdditionalData":[{"value":"United States","key":"CountryName"},{"value":"Minnesota","key":"StateName"},{"value":"Sherburne","key":"CountyName"},{"value":"N","key":"PostalCodeType"}],"Latitude":45.26027,"Longitude":-93.53842,"Name":"Enchanting Place ","Url":"https://www.onlyinyourstate.com/minnesota/enchanting-place-mn/"},{"Label":"301 N Central Ave, Duluth, MN 55807, United States","Country":"USA","State":"MN","County":"St Louis","City":"Duluth","District":"Spirit Valley/Denfeld/Norton Park","Street":"N Central Ave","HouseNumber":"301","PostalCode":"55807","AdditionalData":[{"value":"United States","key":"CountryName"},{"value":"Minnesota","key":"StateName"},{"value":"St Louis","key":"CountyName"},{"value":"N","key":"PostalCodeType"}],"Latitude":46.73782,"Longitude":-92.16692,"Name":"Italian Restaurants ","Url":"https://www.onlyinyourstate.com/minnesota/italian-restaurants-mn/"}]